Timestamp,stateEstimateZ.x,stateEstimateZ.y,stateEstimateZ.z,stateEstimateZ.vx,stateEstimateZ.vy,stateEstimateZ.vz,stateEstimateZ.qw,stateEstimateZ.qx,stateEstimateZ.qy,stateEstimateZ.qz,stateEstimateZ.rateRoll,stateEstimateZ.ratePitch,stateEstimateZ.rateYaw
823581,9,-4,420,-31,25,20,0.004151311826926893,0.0,0.01383770608975631,0.9998956368043063,-54,-51,-14
823631,8,-3,421,-28,21,21,0.004151311826926893,0.001383770608975631,0.015221476698731942,0.9998745713518907,67,-23,-22
823681,7,-3,422,-24,16,20,0.005535082435902524,0.001383770608975631,0.011070164871805049,0.9999224467382661,-20,13,18
823731,7,-3,424,-19,11,19,0.004151311826926893,0.001383770608975631,0.01383770608975631,0.9998946792933698,-48,-11,-45
823781,6,-3,425,-16,7,14,0.004151311826926893,0.001383770608975631,0.009686394262829417,0.9999435111821079,-31,46,39
823831,7,-3,427,-11,3,17,0.002767541217951262,0.001383770608975631,0.015221476698731942,0.9998793589936831,0,17,-4
823881,7,-4,428,-8,0,15,0.002767541217951262,0.0,0.01383770608975631,0.9999004243452347,-44,38,0
823931,8,-5,429,-4,-2,11,0.001383770608975631,-0.0,0.008302623653853786,0.9999645751822233,-70,38,69
823981,9,-6,430,-3,-3,11,-0.0,-0.0,0.009686394262829417,0.9999530857826207,-33,31,75
824031,6,-4,432,-11,2,20,-0.001383770608975631,-0.001383770608975631,0.01660524730770757,0.9998602082889654,-1,-27,22
824081,6,-3,432,-8,3,7,-0.001383770608975631,-0.0,0.020756559134634464,0.999783601801806,8,-14,-15
824131,6,-3,430,-4,2,-2,-0.001383770608975631,-0.001383770608975631,0.023524100352585727,0.9997213547086032,-16,16,-25
824181,6,-3,429,-4,3,-7,-0.001383770608975631,-0.001383770608975631,0.023524100352585727,0.9997213547086032,-7,-11,-22
824231,6,-3,429,-5,4,-3,-0.001383770608975631,-0.001383770608975631,0.023524100352585727,0.9997213547086032,-13,5,-14
824281,5,-3,429,-6,6,-2,-0.002767541217951262,-0.001383770608975631,0.023524100352585727,0.9997184816722706,7,43,-13
824331,5,-3,429,-7,8,0,-0.002767541217951262,-0.001383770608975631,0.023524100352585727,0.9997184816722706,18,27,0
824381,4,-2,429,-9,10,4,-0.001383770608975631,-0.001383770608975631,0.023524100352585727,0.9997213547086032,16,-14,-8
824431,4,-1,429,-11,12,2,-0.001383770608975631,-0.001383770608975631,0.022140329743610097,0.9997529575633411,21,-9,-16
824481,3,-1,429,-12,13,4,-0.001383770608975631,-0.001383770608975631,0.022140329743610097,0.9997529575633411,42,-21,-13
824531,3,0,430,-12,13,5,0.0,-0.0,0.022140329743610097,0.9997548728557637,26,-17,0
824581,2,0,430,-12,13,5,0.0,-0.0,0.022140329743610097,0.9997548728557637,11,-24,-6
824631,0,-1,429,-17,6,2,0.001383770608975631,0.0,0.02767541217951262,0.999616004643581,50,-35,-79
824681,0,0,430,-16,5,6,0.001383770608975631,0.001383770608975631,0.020756559134634464,0.9997826441835715,-34,-46,14
824731,-1,0,430,-14,5,3,0.0,0.002767541217951262,0.011070164871805049,0.999934893963261,-35,-23,76
824781,-16,18,422,-42,41,5,-0.001383770608975631,0.001383770608975631,0.017989017916683205,0.9998362693922425,167,-59,28
824831,-17,20,420,-34,39,-7,0.005535082435902524,0.006918853044878155,0.023524100352585727,0.9996840045922375,300,-237,8
824881,-18,22,419,-22,31,-13,0.011070164871805049,0.011070164871805049,0.02629164157053699,0.9995317165968014,52,-42,-27
824931,-19,23,418,-7,21,-7,0.011070164871805049,0.011070164871805049,0.022140329743610097,0.9996322867426133,-4,35,11
824981,-19,24,417,3,11,4,0.012453935480780678,0.011070164871805049,0.017989017916683205,0.9996993278857123,46,-41,91
825031,-18,24,418,16,0,19,0.012453935480780678,0.011070164871805049,0.020756559134634464,0.9996456953309217,-37,82,59
825081,-17,24,419,26,-11,27,0.011070164871805049,0.008302623653853786,0.023524100352585727,0.9996274979174867,0,93,0
825131,-15,23,422,33,-22,43,0.011070164871805049,0.005535082435902524,0.019372788525658834,0.9997357197664185,-79,40,45
825181,-14,22,424,39,-31,52,0.008302623653853786,0.004151311826926893,0.023524100352585727,0.999680173732169,-97,105,-10
825231,-11,20,427,44,-38,47,0.006918853044878155,0.001383770608975631,0.020756559134634464,0.9997596610707673,-44,98,-1
825281,-9,19,428,47,-44,41,0.005535082435902524,0.001383770608975631,0.017989017916683205,0.9998219057790856,-118,113,63
825331,-6,16,430,48,-50,30,0.002767541217951262,-0.001383770608975631,0.01383770608975631,0.9998994668388829,-118,85,63
825381,-4,13,432,47,-53,19,0.001383770608975631,-0.002767541217951262,0.012453935480780678,0.9999176593027794,-80,53,78
825433,-7,17,431,23,-36,24,-0.002767541217951262,-0.005535082435902524,0.020756559134634464,0.9997654068985009,-64,3,-24
825481,-7,16,434,17,-31,33,-0.002767541217951262,-0.005535082435902524,0.02629164157053699,0.9996351600266775,86,-110,-63
825531,-5,14,434,16,-30,11,-0.001383770608975631,-0.002767541217951262,0.024907870961561357,0.9996849623049608,-16,-9,-60
825581,-3,13,430,23,-28,-22,-0.002767541217951262,-0.002767541217951262,0.020756559134634464,0.9997768984549025,-29,60,-18
825631,-1,11,427,25,-27,-38,-0.002767541217951262,-0.002767541217951262,0.020756559134634464,0.9997768984549025,32,30,-26
825681,0,10,424,23,-26,-35,-0.002767541217951262,-0.002767541217951262,0.020756559134634464,0.9997768984549025,-41,7,-18
825731,0,9,423,20,-23,-25,-0.002767541217951262,-0.004151311826926893,0.017989017916683205,0.9998257360961038,11,-10,-12
825781,-2,10,426,-2,-10,20,-0.004151311826926893,-0.005535082435902524,0.023524100352585727,0.9996993278857123,7,-17,-18
825831,-1,10,425,-2,-7,18,-0.002767541217951262,-0.004151311826926893,0.020756559134634464,0.9997721103224539,69,-122,-25
825881,-1,10,424,-1,-4,14,-0.001383770608975631,-0.001383770608975631,0.01660524730770757,0.9998602082889654,7,4,37
825931,0,9,425,0,-3,13,-0.001383770608975631,-0.001383770608975631,0.01383770608975631,0.9999023393551877,41,-6,33
825981,0,9,425,0,-2,16,-0.0,-0.001383770608975631,0.019372788525658834,0.9998113723316223,31,-18,-31
826031,0,9,425,1,-2,14,0.0,-0.0,0.019372788525658834,0.999812329922341,34,10,-50
826081,-1,9,429,-4,-1,33,0.001383770608975631,-0.0,0.017989017916683205,0.999837226959116,-5,-24,-3
826131,0,10,429,-1,-1,22,0.001383770608975631,0.0,0.017989017916683205,0.999837226959116,19,-21,0
826181,0,9,429,2,-2,9,0.001383770608975631,0.001383770608975631,0.022140329743610097,0.9997529575633411,27,25,-46
826231,0,9,429,4,-4,-1,0.001383770608975631,0.0,0.024907870961561357,0.9996887931466792,8,11,-50
826282,0,9,428,6,-6,-5,0.001383770608975631,0.0,0.024907870961561357,0.9996887931466792,5,16,-36
826331,-1,9,432,-4,-4,25,0.001383770608975631,-0.001383770608975631,0.02905918278848825,0.9995757771442186,5,-25,-65
826382,0,9,432,0,-5,9,0.001383770608975631,-0.0,0.02629164157053699,0.9996533573006335,4,-33,-7
826431,0,9,430,5,-6,-7,0.001383770608975631,0.001383770608975631,0.022140329743610097,0.9997529575633411,-9,30,26
826482,0,9,429,7,-8,-8,0.001383770608975631,-0.0,0.019372788525658834,0.9998113723316223,-8,32,61
826531,0,8,429,6,-10,-5,0.001383770608975631,-0.001383770608975631,0.01660524730770757,0.9998602082889654,-12,12,71
826582,1,7,429,4,-12,2,0.001383770608975631,-0.001383770608975631,0.015221476698731942,0.9998822315677549,-17,30,104
826631,0,7,430,0,-13,9,0.001383770608975631,-0.001383770608975631,0.01383770608975631,0.9999023393551877,-15,15,131
826682,0,6,431,-2,-14,18,0.0,-0.002767541217951262,0.017989017916683205,0.9998343542557437,-24,-7,109
826731,-3,9,433,-21,-3,33,-0.0,-0.002767541217951262,0.02767541217951262,0.9996131313044567,34,-7,20
826782,-4,9,434,-23,-3,20,0.001383770608975631,-0.002767541217951262,0.030442953397463883,0.9995317165968014,69,-125,34
826831,-5,9,434,-24,-5,4,0.002767541217951262,0.0,0.02905918278848825,0.9995738615086291,-46,-64,14
826882,-6,8,434,-23,-6,-1,0.001383770608975631,0.001383770608975631,0.02905918278848825,0.9995757771442186,6,-25,44
826934,-8,8,437,-28,-8,13,0.001383770608975631,0.001383770608975631,0.034594265224390776,0.99939952329956,11,-88,-24
826982,-9,8,436,-20,-8,-4,0.001383770608975631,0.004151311826926893,0.04151311826926893,0.9991283765365585,-8,-57,-67
827031,-9,8,434,-13,-6,-26,0.001383770608975631,0.005535082435902524,0.03874557705131767,0.999232819867467,4,4,-63
827082,-10,8,433,-12,-6,-21,0.001383770608975631,0.004151311826926893,0.04289688887824456,0.999069921834095,11,0,-60
827131,-10,7,431,-4,-6,-25,0.001383770608975631,0.005535082435902524,0.04151311826926893,0.9991216687935915,85,32,-91
827182,-9,7,426,7,-9,-48,0.001383770608975631,0.005535082435902524,0.03874557705131767,0.999232819867467,-81,19,-69
827231,-8,6,422,14,-11,-49,0.001383770608975631,0.004151311826926893,0.034594265224390776,0.9993918593837964,-29,66,-47
827282,-8,5,420,16,-13,-34,0.0,0.001383770608975631,0.030442953397463883,0.9995355480258526,-53,27,-20
827331,-7,4,419,15,-14,-13,-0.001383770608975631,0.001383770608975631,0.030442953397463883,0.9995345901699667,-47,5,-42
827381,-7,4,419,16,-13,1,-0.001383770608975631,0.001383770608975631,0.02905918278848825,0.9995757771442186,50,70,-58
827431,-6,3,419,17,-12,10,-0.0,-0.0,0.02767541217951262,0.9996169624214538,-57,21,-47
827481,-5,2,419,16,-11,16,-0.001383770608975631,-0.001383770608975631,0.02629164157053699,0.9996523995576312,-38,-5,-56
827531,-4,2,421,16,-9,30,-0.001383770608975631,-0.001383770608975631,0.024907870961561357,0.9996878354376258,62,6,-47
827581,-3,1,422,15,-9,32,-0.0,-0.001383770608975631,0.024907870961561357,0.9996887931466792,-19,22,-35
827631,-3,1,424,12,-8,32,-0.001383770608975631,-0.008302623653853786,0.015221476698731942,0.9998487176900684,-681,432,-246
827681,-2,1,425,2,-2,31,-0.008302623653853786,-0.006918853044878155,0.011070164871805049,0.9998803165192907,329,-474,-207
827731,-14,2,447,-34,4,80,0.0,-0.001383770608975631,0.012453935480780678,0.9999214892530024,196,-75,-279
827781,-13,1,450,-21,-7,49,0.001383770608975631,0.001383770608975631,0.01383770608975631,0.9999023393551877,-99,-107,-247
827831,-14,-3,445,-1,-28,-14,0.001383770608975631,0.006918853044878155,0.011070164871805049,0.9999138293378865,12,-124,-156
827881,-12,-4,440,16,-31,-69,0.001383770608975631,0.008302623653853786,0.004151311826926893,0.9999559581448973,-51,82,-102
827932,-11,-7,436,26,-38,-81,-0.001383770608975631,0.006918853044878155,0.001383770608975631,0.9999741495810514,-116,16,-33
827981,-9,-9,430,32,-38,-83,-0.002767541217951262,0.006918853044878155,-0.001383770608975631,0.9999712772710284,-93,38,13
828031,-7,-11,424,38,-36,-83,-0.005535082435902524,0.004151311826926893,-0.002767541217951262,0.9999722347086195,-61,113,72
828081,-7,-13,426,28,-28,-29,-0.006918853044878155,0.001383770608975631,0.001383770608975631,0.9999741495810514,-96,4,116
828131,-8,-14,428,15,-23,11,-0.009686394262829417,0.0,0.004151311826926893,0.9999444686462847,-92,-12,109
828181,-8,-16,428,11,-15,12,-0.009686394262829417,0.0,0.006918853044878155,0.9999291491094399,15,0,60
828232,-9,-16,430,3,-3,18,-0.008302623653853786,0.0,0.012453935480780678,0.9998879766911406,28,12,15
828281,-8,-16,426,7,2,-11,-0.009686394262829417,0.0,0.011070164871805049,0.9998918067550588,-18,-6,-12
828331,-9,-15,429,-3,15,4,-0.009686394262829417,0.0,0.011070164871805049,0.9998918067550588,64,-21,-46
828381,-9,-15,425,-2,18,-16,-0.006918853044878155,0.001383770608975631,0.009686394262829417,0.9999281916305941,63,-105,-26
828431,-11,-14,427,-11,22,-13,-0.009686394262829417,-0.002767541217951262,0.009686394262829417,0.9999023393551877,-439,485,-234
828481,-11,-13,422,-11,32,-50,-0.015221476698731942,-0.008302623653853786,-0.002767541217951262,0.9998458450197107,37,-26,-336
828531,-10,-15,422,0,22,-39,-0.011070164871805049,-0.001383770608975631,-0.002767541217951262,0.9999339364899162,79,-546,508
828581,-8,-13,415,15,33,-48,-0.004151311826926893,0.011070164871805049,0.001383770608975631,0.9999291491094399,391,-31,230
828631,0,-22,419,68,-23,14,0.012453935480780678,0.020756559134634464,0.01383770608975631,0.999611215740452,122,-1,1060
828681,4,-24,416,95,-39,-1,0.001383770608975631,0.004151311826926893,0.0401293476602933,0.9991849114380064,-1328,1805,314
828731,18,-38,425,125,-92,25,-0.024907870961561357,-0.04151311826926893,0.034594265224390776,0.9982281782184413,-2192,2461,-640
828781,31,-52,429,123,-113,-13,-0.06365344801287903,-0.0802586953205866,0.022140329743610097,0.9944931302831373,-1588,1111,-1019
828831,39,-60,430,86,-87,-13,-0.06918853044878155,-0.08164246592956223,-0.005535082435902524,0.9942418306798935,1021,-1461,-1107
828881,58,-69,423,121,-73,-83,-0.04151311826926893,-0.03597803583336641,-0.01660524730770757,0.9983518957316526,902,-1327,135
828931,72,-81,423,149,-99,-60,-0.020756559134634464,-0.01660524730770757,-0.015221476698731942,0.9995307587372438,-174,935,-76
828981,84,-89,425,149,-103,-21,-0.030442953397463883,-0.04151311826926893,-0.01660524730770757,0.9985360050403047,-658,647,-38
829031,92,-95,426,111,-71,9,-0.03874557705131767,-0.044280659487220195,-0.019372788525658834,0.9980795051092259,137,-510,0
829081,95,-96,430,60,-23,30,-0.03597803583336641,-0.037361806442342035,-0.019372788525658834,0.9984660091468703,-55,266,-32
829131,94,-94,430,3,30,16,-0.0401293476602933,-0.047048200705171454,-0.020756559134634464,0.9978703660895315,-48,107,-30
829181,89,-87,431,-68,95,3,-0.03874557705131767,-0.04566443009619582,-0.023524100352585727,0.9979279316591713,387,-637,10
829231,80,-77,428,-131,159,-26,-0.030442953397463883,-0.031826724006439516,-0.024907870961561357,0.9987191217712916,312,-353,12
829281,68,-64,425,-186,213,-49,-0.022140329743610097,-0.02629164157053699,-0.023524100352585727,0.9991322095123208,585,-503,6
829331,59,-54,416,-201,223,-91,-0.006918853044878155,-0.009686394262829417,-0.023524100352585727,0.9996523995576312,453,-789,52
829381,42,-36,413,-246,265,-72,0.001383770608975631,0.002767541217951262,-0.020756559134634464,0.9997797713233646,425,-423,45
829431,30,-23,410,-239,258,-48,0.01383770608975631,0.01383770608975631,-0.019372788525658834,0.9996207935237678,548,-532,109
829481,10,-4,407,-266,273,-33,0.023524100352585727,0.024907870961561357,-0.01383770608975631,0.999317133124884,456,-591,131
829531,-3,11,404,-247,256,-24,0.037361806442342035,0.037361806442342035,-0.008302623653853786,0.9985686041926175,714,-476,120
829581,-15,23,403,-206,217,-16,0.05258328314107398,0.047048200705171454,-0.006918853044878155,0.9974836312526912,334,-274,162
829631,-25,34,402,-160,171,-7,0.05673459496800087,0.05258328314107398,-0.002767541217951262,0.9969997616767666,18,-161,154
829681,-34,44,403,-122,128,15,0.05673459496800087,0.05258328314107398,0.002767541217951262,0.9969997616767666,99,76,136
829731,-40,50,406,-82,79,34,0.05950213618595213,0.04843197131414709,0.005535082435902524,0.997037212347845,3,174,117
829781,-42,54,408,-27,27,32,0.05673459496800087,0.04566443009619582,0.008302623653853786,0.9973098876468983,-253,80,110
829831,-43,57,410,9,-9,34,0.04843197131414709,0.04151311826926893,0.011070164871805049,0.9979020275637775,-299,218,103
829881,-43,57,412,36,-38,29,0.04151311826926893,0.03321049461541514,0.01383770608975631,0.9984899808957197,-167,328,122
829931,-40,55,413,69,-75,25,0.03597803583336641,0.02629164157053699,0.01660524730770757,0.9988686581743114,-296,306,113
829981,-36,50,415,92,-106,19,0.02767541217951262,0.017989017916683205,0.015221476698731942,0.9993391683718783,-389,281,110
830031,-32,44,417,105,-129,25,0.017989017916683205,0.011070164871805049,0.01660524730770757,0.9996389910592495,-408,344,91
830081,-27,38,420,109,-142,27,0.009686394262829417,0.002767541217951262,0.022140329743610097,0.9997041163667559,-246,223,82
830131,-33,44,418,60,-95,22,0.0,-0.004151311826926893,0.020756559134634464,0.9997759408302472,-157,-11,72
830181,-30,39,419,57,-94,14,-0.002767541217951262,-0.001383770608975631,0.022140329743610097,0.9997500846178273,-40,-162,34
830231,-27,34,419,56,-91,0,-0.002767541217951262,0.0,0.017989017916683205,0.9998343542557437,-69,4,8
830281,-24,30,419,55,-87,-8,-0.006918853044878155,-0.0,0.020756559134634464,0.9997606187110162,-68,56,-12
830331,-30,35,418,15,-42,2,-0.009686394262829417,-0.002767541217951262,0.022140329743610097,0.9997041163667559,51,-137,23
830381,-28,33,417,17,-33,-5,-0.006918853044878155,0.001383770608975631,0.017989017916683205,0.9998132875121426,164,-160,50
830431,-27,32,414,25,-28,-19,-0.004151311826926893,0.004151311826926893,0.017989017916683205,0.9998209481975383,98,14,30
830481,-25,30,412,30,-26,-30,-0.001383770608975631,0.002767541217951262,0.020756559134634464,0.9997797713233646,43,41,33
830531,-23,29,410,33,-26,-29,0.001383770608975631,0.002767541217951262,0.017989017916683205,0.9998333966861188,61,-68,46
830581,-22,27,409,35,-28,-21,0.0,0.004151311826926893,0.019372788525658834,0.9998037115728545,-77,-49,21
830631,-20,26,408,41,-28,-11,-0.0,0.005535082435902524,0.020756559134634464,0.9997692374319777,73,-10,16
830681,-18,24,407,46,-29,-2,0.002767541217951262,0.004151311826926893,0.020756559134634464,0.9997721103224539,100,121,21
830731,-15,23,407,49,-32,0,0.002767541217951262,0.002767541217951262,0.020756559134634464,0.9997768984549025,-97,26,-7
830781,-13,21,407,51,-35,3,0.001383770608975631,0.001383770608975631,0.020756559134634464,0.9997826441835715,-13,19,-41
830831,-10,19,408,53,-36,11,0.002767541217951262,-0.0,0.019372788525658834,0.9998084995539631,66,142,-41
830881,-8,17,408,51,-38,11,0.002767541217951262,-0.004151311826926893,0.017989017916683205,0.9998257360961038,-58,152,-73
830931,-5,16,409,46,-39,8,0.0,-0.006918853044878155,0.01660524730770757,0.9998381845250727,-99,60,-64
830981,-9,16,422,23,-33,44,-0.001383770608975631,-0.008302623653853786,0.009686394262829417,0.9999176593027794,-28,-1,-22
831031,-8,15,426,13,-30,44,-0.001383770608975631,-0.006918853044878155,0.012453935480780678,0.9998975518234284,26,-41,-67
831081,-8,14,428,6,-27,36,-0.001383770608975631,-0.008302623653853786,0.006918853044878155,0.9999406387840768,-45,80,-40
831133,-8,13,430,-2,-25,19,-0.002767541217951262,-0.008302623653853786,0.008302623653853786,0.9999272341508315,-312,548,-713
831181,-38,51,411,-76,50,-12,-0.005535082435902524,-0.019372788525658834,-0.009686394262829417,0.9997500846178273,529,-481,-1026
831231,-41,53,410,-79,50,-24,0.012453935480780678,0.004151311826926893,-0.030442953397463883,0.9994502952571459,647,-1206,-727
831281,-39,53,408,-31,14,-31,0.019372788525658834,0.024907870961561357,-0.04151311826926893,0.9986395516103215,-172,15,-221
831332,-37,55,402,9,3,-50,0.017989017916683205,0.020756559134634464,-0.047048200705171454,0.9985149109040333,227,173,-167
831383,-34,50,406,37,-41,-11,0.023524100352585727,0.019372788525658834,-0.049815741923122714,0.9982933955626424,-294,212,-440
831431,-29,49,405,70,-56,-12,0.01383770608975631,0.01660524730770757,-0.05950213618595213,0.9979941279593442,-259,-11,-134
831481,-25,46,405,87,-68,0,0.011070164871805049,0.015221476698731942,-0.05950213618595213,0.9980507271106662,-155,662,-399
831531,-19,42,404,104,-78,0,0.0,-0.004151311826926893,-0.06365344801287903,0.9979634287719101,-97,321,295
831581,-10,33,407,129,-110,22,-0.001383770608975631,-0.008302623653853786,-0.05258328314107398,0.9985810682931405,-359,483,-137
831631,-2,28,401,131,-104,-35,-0.012453935480780678,-0.022140329743610097,-0.05950213618595213,0.9979049058298056,-791,1025,-410
831681,19,5,402,205,-197,-44,-0.031826724006439516,-0.04289688887824456,-0.07887492471161096,0.9954524914908411,-501,551,-741
831731,38,-14,405,216,-227,20,-0.01383770608975631,-0.030442953397463883,-0.09271263080136728,0.9951312036955241,915,-815,-760
831781,62,-40,409,287,-327,67,0.01383770608975631,-0.009686394262829417,-0.11070164871805048,0.9937101371262467,727,-721,-721
831831,86,-68,421,328,-410,138,0.006918853044878155,-0.01383770608975631,-0.1259231254167824,0.991919358540797,-2788,2710,-105
831881,112,-102,431,357,-460,161,-0.06503721862185466,-0.06918853044878155,-0.1259231254167824,0.9874849233955627,-1531,2154,229
831931,128,-123,439,285,-375,139,-0.08717754836546475,-0.1023990250641967,-0.11485296054497737,0.9842374267324643,331,219,512
831981,141,-140,445,201,-289,84,-0.0844100071475135,-0.1023990250641967,-0.1023990250641967,0.9858518296504606,-386,-30,516
832031,149,-152,447,120,-204,14,-0.09963148384624543,-0.1023990250641967,-0.09132886019239164,0.9855186687163546,-384,215,451
832081,153,-160,446,37,-106,-50,-0.1023990250641967,-0.10378279567317232,-0.0802586953205866,0.9860538082749845,447,-312,432
832131,152,-170,458,-49,-39,-54,-0.09132886019239164,-0.09271263080136728,-0.07195607166673282,0.9888810500440081,79,-500,421
832181,140,-165,452,-157,73,-105,-0.09271263080136728,-0.08302623653853786,-0.06780475983980593,0.9899058170751409,174,-608,399
832231,125,-151,444,-262,211,-142,-0.0844100071475135,-0.06780475983980593,-0.060885906794927766,0.9922551947912303,788,-887,408
832281,106,-121,433,-362,375,-181,-0.06780475983980593,-0.04843197131414709,-0.05119951253209835,0.9952062442600365,1084,-1195,426
832331,65,-118,399,-471,403,-256,-0.03874557705131767,-0.022140329743610097,-0.034594265224390776,0.9984046388470905,980,-1468,405
832381,36,-92,382,-502,468,-240,-0.01660524730770757,0.012453935480780678,-0.024907870961561357,0.9994742433985243,972,-1277,398
832431,9,-65,371,-491,492,-162,0.009686394262829417,0.0401293476602933,-0.01660524730770757,0.9990095469936181,1060,-985,347
832481,-12,-40,364,-425,474,-89,0.03321049461541514,0.06365344801287903,-0.009686394262829417,0.9973722852424045,728,-726,316
832531,-35,-12,360,-370,461,-29,0.049815741923122714,0.07472361288468407,-0.005535082435902524,0.9959438419893646,852,-252,223
832581,-56,13,360,-310,421,33,0.06918853044878155,0.07887492471161096,-0.0,0.9944806149473582,490,-206,208
832631,-71,34,364,-233,352,77,0.07749115410263534,0.08164246592956223,0.004151311826926893,0.9936359471168993,310,-107,135
832681,-82,51,370,-153,278,108,0.08579377775648912,0.08164246592956223,0.005535082435902524,0.9929467751685577,345,142,79
832731,-87,64,375,-70,193,106,0.08994508958341602,0.07610738349365971,0.006918853044878155,0.9930104110784155,-141,355,75
832781,-88,71,381,1,108,98,0.0844100071475135,0.06780475983980593,0.008302623653853786,0.9940867827694347,-355,324,69
832832,-96,86,386,14,85,93,0.07333984227570844,0.05535082435902524,0.009686394262829417,0.9957227161935874,-254,399,87
832881,-96,91,392,58,28,88,0.06780475983980593,0.04566443009619582,0.011070164871805049,0.9965915541568506,-111,160,120
832931,-92,91,396,101,-34,67,0.06365344801287903,0.04151311826926893,0.01383770608975631,0.997012245390099,-398,316,96
832981,-86,88,401,139,-86,57,0.05258328314107398,0.031826724006439516,0.01660524730770757,0.997971103657302,-447,439,107
833031,-78,83,405,164,-131,53,0.04289688887824456,0.020756559134634464,0.01660524730770757,0.9987258322178855,-370,309,81
833081,-70,75,410,179,-168,60,0.031826724006439516,0.01383770608975631,0.015221476698731942,0.9992816840992841,-507,300,65
833131,-61,67,415,186,-191,63,0.019372788525658834,0.005535082435902524,0.019372788525658834,0.9996093001727765,-459,300,18
833181,-52,57,421,185,-204,67,0.008302623653853786,-0.002767541217951262,0.01660524730770757,0.9998238209394289,-326,203,27
833231,-44,47,425,178,-207,56,-0.0,-0.006918853044878155,0.01660524730770757,0.9998381845250727,-379,184,7
833281,-71,85,403,60,-61,-18,-0.015221476698731942,-0.015221476698731942,0.01660524730770757,0.9996303712153156,369,-364,12
833331,-69,82,402,51,-51,-24,-0.0,-0.001383770608975631,0.015221476698731942,0.9998831890906116,618,-541,17
833381,-65,80,399,56,-56,-34,0.008302623653853786,0.006918853044878155,0.012453935480780678,0.9998640384592529,-102,59,-2
833431,-62,77,398,62,-64,-21,0.008302623653853786,0.005535082435902524,0.012453935480780678,0.999872656288755,164,-76,26
833481,-59,73,397,70,-72,-7,0.012453935480780678,0.008302623653853786,0.011070164871805049,0.9998266936730655,147,-150,3
833531,-55,69,397,80,-85,8,0.012453935480780678,0.009686394262829417,0.012453935480780678,0.9997979659652575,-103,96,7
833581,-51,65,399,89,-96,19,0.011070164871805049,0.006918853044878155,0.011070164871805049,0.999853505455657,2,79,36
833631,-46,60,401,95,-106,36,0.011070164871805049,0.005535082435902524,0.012453935480780678,0.9998458450197107,-83,34,16
833681,-42,55,403,101,-114,35,0.008302623653853786,0.004151311826926893,0.01383770608975631,0.9998611658329128,-123,111,-20
833731,-36,50,405,104,-119,38,0.005535082435902524,0.001383770608975631,0.008302623653853786,0.9999492559534169,-116,125,0
833781,-31,44,408,104,-120,38,0.002767541217951262,-0.001383770608975631,0.011070164871805049,0.9999339364899162,-74,80,-26
833831,-26,38,410,102,-120,34,-0.0,-0.004151311826926893,0.011070164871805049,0.9999301065873688,-103,108,-59
833881,-22,33,413,96,-117,32,-0.002767541217951262,-0.006918853044878155,0.006918853044878155,0.9999482984938239,-104,55,-19
833931,-17,27,414,89,-113,22,-0.005535082435902524,-0.008302623653853786,0.005535082435902524,0.999934893963261,-70,39,-50
833981,-13,22,415,81,-107,6,-0.006918853044878155,-0.009686394262829417,0.004151311826926893,0.9999205317668219,-93,62,-53
834031,-9,17,415,71,-100,-6,-0.009686394262829417,-0.011070164871805049,0.002767541217951262,0.9998879766911406,-105,81,-41
834081,-70,95,376,-69,66,-53,-0.015221476698731942,-0.01660524730770757,0.004151311826926893,0.9997376350918652,661,-538,-57
834131,-71,100,370,-65,74,-59,0.012453935480780678,0.005535082435902524,0.0,0.9999071268640244,265,489,-1080
834181,-73,102,366,-54,51,-47,0.019372788525658834,0.002767541217951262,-0.015221476698731942,0.9996926239737177,508,-699,-433
834231,-73,104,365,-28,19,-16,0.034594265224390776,0.02629164157053699,-0.020756559134634464,0.9988399029123743,326,-739,-253
834281,-71,103,365,18,-25,21,0.037361806442342035,0.034594265224390776,-0.024907870961561357,0.9983921725439917,-80,287,-104
834331,-67,101,367,60,-63,48,0.037361806442342035,0.02905918278848825,-0.024907870961561357,0.9985686041926175,81,-67,17
834381,-64,97,371,89,-105,86,0.037361806442342035,0.030442953397463883,-0.020756559134634464,0.9986222945942551,-91,82,37
834431,-57,91,375,128,-137,93,0.03321049461541514,0.024907870961561357,-0.020756559134634464,0.9989223324485503,-275,394,72
834481,-52,86,380,137,-158,110,0.02629164157053699,0.01660524730770757,-0.017989017916683205,0.9993544969527928,-190,214,72
834531,-46,77,387,148,-182,114,0.022140329743610097,0.011070164871805049,-0.01383770608975631,0.9995978066896349,-235,184,11
834581,-36,69,391,170,-193,85,0.01383770608975631,0.006918853044878155,-0.01383770608975631,0.9997845594191233,-368,320,20
834631,-29,62,395,161,-187,68,0.005535082435902524,-0.001383770608975631,-0.009686394262829417,0.9999368089072002,-169,277,-31
834682,-22,54,397,149,-183,53,0.001383770608975631,-0.008302623653853786,-0.011070164871805049,0.9999032968587889,-235,147,0
834731,-14,45,397,144,-182,26,-0.004151311826926893,-0.012453935480780678,-0.015221476698731942,0.9997979659652575,-211,174,12
834781,-7,36,397,131,-177,16,-0.008302623653853786,-0.015221476698731942,-0.017989017916683205,0.9996878354376258,-114,99,12
834831,-1,27,398,115,-167,14,-0.011070164871805049,-0.017989017916683205,-0.017989017916683205,0.9996150468647906,-122,78,-14
834881,-4,25,406,54,-125,50,-0.01660524730770757,-0.022140329743610097,-0.015221476698731942,0.9995010646356531,-6,-102,-49
834931,-2,20,405,34,-107,25,-0.015221476698731942,-0.017989017916683205,-0.017989017916683205,0.9995604519567071,82,-241,-38
834981,-1,15,405,17,-90,14,-0.015221476698731942,-0.012453935480780678,-0.01660524730770757,0.9996686810638814,-4,-78,-16
835031,-1,11,404,8,-75,-5,-0.01383770608975631,-0.011070164871805049,-0.019372788525658834,0.9996552727838856,68,-90,-45
835082,-1,8,406,-5,-62,0,-0.012453935480780678,-0.006918853044878155,-0.019372788525658834,0.9997108202016841,26,-138,-21
835131,-2,5,405,-10,-52,-2,-0.011070164871805049,-0.004151311826926893,-0.017989017916683205,0.9997682797999844,76,-81,-53
835181,-3,2,408,-16,-43,15,-0.009686394262829417,-0.001383770608975631,-0.01660524730770757,0.9998142451010271,48,-102,-49
835231,-4,0,406,-13,-35,7,-0.008302623653853786,0.001383770608975631,-0.019372788525658834,0.9997768984549025,36,-46,-22
835281,-4,-1,407,-12,-28,11,-0.006918853044878155,0.001383770608975631,-0.019372788525658834,0.9997874322655718,39,-7,-15
835331,-5,-2,408,-12,-23,12,-0.005535082435902524,0.001383770608975631,-0.017989017916683205,0.9998219057790856,22,-103,9
835381,-6,-4,410,-11,-19,19,-0.005535082435902524,0.004151311826926893,-0.01660524730770757,0.9998381845250727,31,-53,0
835431,-6,-5,410,-6,-17,10,-0.004151311826926893,0.004151311826926893,-0.01383770608975631,0.9998870191728687,31,25,0
835481,-5,-6,408,4,-12,-12,-0.004151311826926893,0.004151311826926893,-0.01660524730770757,0.9998448874610907,-12,72,3
835531,-5,-6,407,8,-9,-17,-0.004151311826926893,0.002767541217951262,-0.015221476698731942,0.9998716987558116,-4,22,7
835581,-4,-7,405,12,-7,-24,-0.004151311826926893,0.002767541217951262,-0.01660524730770757,0.9998496752450202,41,20,26
835631,-3,-8,401,18,-6,-41,-0.002767541217951262,0.002767541217951262,-0.017989017916683205,0.9998305239717414,17,77,40
835681,-4,-8,406,7,-6,11,-0.002767541217951262,-0.0,-0.015221476698731942,0.9998803165192907,-11,33,53
835731,-3,-9,407,7,-5,24,-0.002767541217951262,-0.0,-0.01383770608975631,0.9999004243452347,-22,-12,51
835781,-3,-9,409,8,-4,30,-0.002767541217951262,-0.0,-0.012453935480780678,0.9999186167917105,-37,85,27
835831,-3,-10,413,4,-3,42,-0.002767541217951262,-0.002767541217951262,-0.009686394262829417,0.9999454261095447,2,23,8
835881,-3,-10,415,2,0,37,-0.002767541217951262,-0.002767541217951262,-0.008302623653853786,0.9999578730484981,-23,-34,-3
835931,-2,-11,416,4,0,16,-0.002767541217951262,-0.001383770608975631,-0.006918853044878155,0.9999712772710284,0,-21,-34
835981,0,-11,411,13,1,-33,-0.002767541217951262,-0.0,-0.008302623653853786,0.9999617028446987,5,33,-19
836031,0,-11,408,15,2,-52,-0.002767541217951262,-0.001383770608975631,-0.009686394262829417,0.9999482984938239,4,14,0
836081,1,-12,406,14,0,-47,-0.005535082435902524,-0.008302623653853786,-0.020756559134634464,0.9997347621023192,-10,75,-330
836131,2,-13,406,9,-1,-23,-0.005535082435902524,-0.006918853044878155,-0.02629164157053699,0.9996150468647906,-516,187,35
836181,3,-15,407,8,-3,2,-0.012453935480780678,-0.009686394262829417,-0.024907870961561357,0.9995652411030447,-134,389,-133
836231,8,-16,405,27,-2,-13,-0.01383770608975631,-0.017989017916683205,-0.037361806442342035,0.9990440473492307,48,244,-976
836281,13,-17,403,36,4,-21,-0.011070164871805049,-0.01660524730770757,-0.06226967740390339,0.9978598120415386,102,-323,-1347
836331,23,-27,408,77,-49,31,-0.006918853044878155,-0.008302623653853786,-0.09686394262829418,0.9952389524790056,-972,757,-949
836381,33,-27,398,107,-10,-32,-0.04566443009619582,-0.02905918278848825,-0.11070164871805048,0.9923786921789284,-794,873,-875
836431,50,-34,386,154,-5,-75,-0.031826724006439516,-0.034594265224390776,-0.1466796845514169,0.9880664788325223,635,1444,-3407
836481,57,-34,381,109,38,-89,-0.0401293476602933,-0.09271263080136728,-0.24631116839766232,0.9639112053860703,382,1704,-4564
836531,143,-139,452,423,-423,134,-0.006918853044878155,-0.1120854193270261,-0.3390237991990296,0.9340513111298995,215,2050,-2348
836581,183,-181,470,422,-515,119,0.001383770608975631,-0.13976083150653873,-0.3929908529490792,0.9088581763145765,156,554,-496
836631,206,-213,478,336,-523,60,0.0,-0.1383770608975631,-0.3999097059939574,0.9060485726875677,-567,-582,1333
836681,219,-244,479,223,-518,-11,-0.01383770608975631,-0.11346918993600175,-0.3791531468593229,0.9182462371565232,-1147,-373,2145
836731,222,-271,474,115,-468,-104,-0.04843197131414709,-0.1023990250641967,-0.33625625798107833,0.9349334269289392,-1424,633,2348
836781,214,-293,458,-18,-365,-212,-0.09132886019239164,-0.10931787810907485,-0.2905918278848825,0.9461844589656981,-1140,490,2306
836831,202,-307,439,-135,-221,-301,-0.12177181358985553,-0.10516656628214796,-0.24077608596175978,0.9571512394498558,-517,-261,2135
836881,185,-304,416,-263,-13,-371,-0.13699329028858748,-0.09132886019239164,-0.19511165586556398,0.9668626166406803,-185,-838,1915
836931,170,-287,397,-352,210,-362,-0.1383770608975631,-0.06365344801287903,-0.15359853759629505,0.9763234693592607,534,-1272,1710
836981,151,-273,381,-390,367,-289,-0.116236731153953,-0.031826724006439516,-0.116236731153953,0.9858829059783445,1044,-1038,1529
837031,131,-251,368,-404,493,-194,-0.08994508958341602,-0.009686394262829417,-0.08164246592956223,0.9925475113982991,977,-549,1337
837081,111,-224,361,-403,588,-89,-0.06226967740390339,0.006918853044878155,-0.05119951253209835,0.9967212381930229,1313,-855,1163
837131,121,-160,369,-311,715,-12,-0.03321049461541514,0.030442953397463883,-0.022140329743610097,0.9987392529758122,1347,-524,914
837181,106,-124,371,-273,735,68,0.005535082435902524,0.031826724006439516,-0.004151311826926893,0.999469453816154,1746,619,671
837231,44,-47,393,-478,854,207,0.04289688887824456,0.001383770608975631,0.017989017916683205,0.9989165817714022,1244,253,561
837281,-14,59,325,-633,1032,-54,0.05396705375004961,-0.006918853044878155,0.044280659487220195,0.997536420276202,1435,-1307,298
837331,-49,113,317,-651,977,-62,0.08994508958341602,0.037361806442342035,0.060885906794927766,0.9933815393054954,1739,-2172,45
837381,-54,185,334,-476,977,8,0.11900427237190427,0.08994508958341602,0.06780475983980593,0.9864838460715568,924,-671,-165
837431,-67,237,338,-319,871,40,0.13284197846166057,0.09686394262829418,0.05673459496800087,0.9847596514432906,457,809,-205
837481,-77,277,345,-192,702,101,0.14806345516039252,0.07887492471161096,0.05258328314107398,0.9844241757656147,495,506,-37
837531,-85,308,351,-106,538,121,0.1563660788142463,0.06918853044878155,0.05119951253209835,0.9839416682746343,89,370,-23
837581,-77,337,366,27,455,178,0.15498230820527067,0.06503721862185466,0.05119951253209835,0.984443626752581,139,550,-24
837631,-68,361,380,132,326,193,0.15913362003219755,0.049815741923122714,0.04843197131414709,0.984809233804559,278,996,-14
837681,-56,377,392,202,189,180,0.1660524730770757,0.02767541217951262,0.04289688887824456,0.9847946510162657,139,916,101
837731,-48,385,401,206,52,141,0.16743624368605134,0.004151311826926893,0.044280659487220195,0.9848792281827238,23,688,109
837781,-34,390,411,229,-68,120,0.1660524730770757,-0.009686394262829417,0.044280659487220195,0.9850746028329778,-11,494,120
837831,-21,384,417,230,-213,70,0.16328493185912446,-0.022140329743610097,0.044280659487220195,0.9853360137648386,-439,416,127
837881,-15,377,421,186,-314,27,0.14529591394244126,-0.034594265224390776,0.04566443009619582,0.9877282490792723,-879,305,127
837931,-7,362,423,151,-420,0,0.12315558419883116,-0.04151311826926893,0.04843197131414709,0.9903351489505116,-687,21,67
837981,-3,342,423,98,-510,-18,0.10378279567317232,-0.04289688887824456,0.05673459496800087,0.9920535136678087,-769,-204,51
838031,5,318,425,88,-582,-17,0.0802586953205866,-0.037361806442342035,0.05396705375004961,0.9946105742220628,-1019,-204,55
838081,12,291,426,73,-638,-8,0.05673459496800087,-0.03321049461541514,0.05119951253209835,0.9965223824368883,-839,-96,81
838131,10,267,424,9,-634,-13,0.03321049461541514,-0.034594265224390776,0.05258328314107398,0.9974644345514729,-864,-98,54
838181,9,242,424,-24,-619,-9,0.009686394262829417,-0.030442953397463883,0.05535082435902524,0.9979557538274937,-542,-502,44
838231,9,212,424,-39,-615,-8,-0.002767541217951262,-0.017989017916683205,0.05535082435902524,0.9983010679112673,-349,-330,17
838281,6,186,423,-59,-582,-10,-0.015221476698731942,-0.01383770608975631,0.05535082435902524,0.998255032935001,-490,-101,-10
838331,5,162,421,-59,-532,-20,-0.02767541217951262,-0.008302623653853786,0.049815741923122714,0.9983403877725299,-212,-318,18
838381,0,140,420,-75,-484,-12,-0.03321049461541514,-0.001383770608975631,0.05119951253209835,0.9981351402203895,-35,-240,-3
838431,-3,119,420,-79,-436,-12,-0.03597803583336641,0.002767541217951262,0.05258328314107398,0.997964388135812,-71,-151,-34
838481,-8,99,419,-82,-394,-12,-0.037361806442342035,0.005535082435902524,0.05396705375004961,0.9978281492277776,-24,-207,-12
838531,-9,83,418,-58,-337,-15,-0.0401293476602933,0.012453935480780678,0.05258328314107398,0.9977321951713825,51,-136,-31
838581,-11,70,416,-44,-284,-24,-0.03874557705131767,0.01383770608975631,0.05119951253209835,0.997840622577378,193,66,-14
838631,-11,58,413,-28,-241,-34,-0.034594265224390776,0.012453935480780678,0.04843197131414709,0.998149528106511,156,69,-11
838681,-13,47,412,-21,-198,-15,-0.030442953397463883,0.009686394262829417,0.04843197131414709,0.9983154534060116,139,51,-3
838731,-14,39,411,-11,-165,-13,-0.02629164157053699,0.008302623653853786,0.04566443009619582,0.9985762744267352,215,77,-47
838781,-15,31,413,-7,-139,11,-0.020756559134634464,0.006918853044878155,0.049815741923122714,0.9985187462346827,180,48,-39
838831,-14,25,411,3,-118,0,-0.017989017916683205,0.006918853044878155,0.047048200705171454,0.9987066593937094,110,80,-59
838881,-13,19,409,10,-103,-10,-0.015221476698731942,0.004151311826926893,0.04151311826926893,0.999013380425301,131,89,15
838931,-13,14,409,9,-90,-6,-0.012453935480780678,0.002767541217951262,0.044280659487220195,0.998937667425763,70,45,-23
838981,-13,9,410,5,-81,1,-0.011070164871805049,0.001383770608975631,0.04151311826926893,0.9990756716286182,39,49,52
839031,-13,6,409,8,-72,-1,-0.008302623653853786,0.0,0.04151311826926893,0.999103461835672,41,20,-6
839081,-12,2,408,9,-64,4,-0.006918853044878155,0.0,0.04289688887824456,0.9990555472030126,50,39,-35
839131,-12,0,409,6,-58,6,-0.006918853044878155,-0.0,0.04289688887824456,0.9990555472030126,14,19,-35
839181,-12,-3,409,3,-53,7,-0.006918853044878155,-0.001383770608975631,0.04289688887824456,0.9990545888869199,-3,6,-56
839231,-13,-6,411,-1,-47,8,-0.005535082435902524,-0.001383770608975631,0.044280659487220195,0.9990028384527776,27,-27,-53
839281,-13,-8,411,-3,-42,9,-0.005535082435902524,-0.001383770608975631,0.0401293476602933,0.9991782040745729,-23,-50,-21
839331,-13,-10,413,-6,-36,10,-0.005535082435902524,0.0,0.02905918278848825,0.9995623676179956,0,-7,37
839381,-14,-11,414,-8,-30,17,-0.005535082435902524,0.001383770608975631,0.02629164157053699,0.9996380333024829,0,-17,87
839431,-15,-13,416,-9,-25,14,-0.005535082435902524,0.001383770608975631,0.02767541217951262,0.9996006800728097,25,-61,57
839481,-15,-14,416,-9,-21,7,-0.004151311826926893,0.002767541217951262,0.031826724006439516,0.9994809487752833,61,-36,12
839531,-16,-15,417,-6,-18,-1,-0.004151311826926893,0.002767541217951262,0.034594265224390776,0.999388985400233,28,-26,-16
839581,-16,-16,416,-3,-15,-5,-0.004151311826926893,0.004151311826926893,0.034594265224390776,0.9993841954092608,-18,16,-26
839631,-16,-17,416,-1,-12,-10,-0.004151311826926893,0.004151311826926893,0.031826724006439516,0.9994761592250458,3,10,6
839681,-16,-18,415,1,-8,-13,-0.005535082435902524,0.004151311826926893,0.02767541217951262,0.9995930176993222,13,-8,53
839731,-16,-19,415,4,-6,-17,-0.004151311826926893,0.002767541217951262,0.031826724006439516,0.9994809487752833,8,25,4
839783,-15,-20,414,7,-2,-14,-0.004151311826926893,0.002767541217951262,0.02767541217951262,0.9996045112375277,-25,12,50
839831,-15,-20,413,10,0,-13,-0.005535082435902524,0.001383770608975631,0.02905918278848825,0.9995614097878103,-1,-2,52
839881,-14,-21,413,12,2,-16,-0.004151311826926893,0.001383770608975631,0.030442953397463883,0.999526927289834,51,24,24
839931,-12,-22,412,14,4,-18,-0.004151311826926893,0.001383770608975631,0.02629164157053699,0.9996447375805786,-33,15,72
839981,-11,-22,412,16,7,-14,-0.004151311826926893,0.001383770608975631,0.030442953397463883,0.999526927289834,-2,45,11
840031,-9,-23,412,19,10,-8,-0.004151311826926893,0.0,0.03321049461541514,0.9994397578931484,40,61,-20
840081,-7,-23,412,19,12,-7,-0.002767541217951262,-0.001383770608975631,0.030442953397463883,0.9995317165968014,-25,39,23
840131,-6,-23,412,19,13,-6,-0.004151311826926893,-0.002767541217951262,0.02629164157053699,0.9996418643240432,-19,91,41
840181,-4,-23,412,16,16,-5,-0.004151311826926893,-0.004151311826926893,0.02629164157053699,0.9996370755447987,16,53,53
840231,-3,-25,413,11,15,-4,-0.004151311826926893,-0.005535082435902524,0.02767541217951262,0.9995930176993222,-17,49,36
840282,-1,-25,413,6,17,-9,-0.004151311826926893,-0.006918853044878155,0.030442953397463883,0.9995039382969428,-11,-12,-2
840331,-1,-24,412,0,20,-17,-0.002767541217951262,-0.006918853044878155,0.031826724006439516,0.9994656221337321,16,-33,-16
840381,8,-41,432,-11,3,36,-0.006918853044878155,-0.012453935480780678,0.03597803583336641,0.999251024468405,-33,-16,-132
840431,7,-41,433,-22,9,22,-0.005535082435902524,-0.008302623653853786,0.03321049461541514,0.9993985653133036,-32,-269,-63
840481,6,-40,434,-28,15,4,-0.008302623653853786,-0.005535082435902524,0.031826724006439516,0.999443589674729,-129,24,-32
840531,4,-39,434,-34,23,-18,-0.008302623653853786,-0.005535082435902524,0.031826724006439516,0.999443589674729,125,-102,16
840581,13,-38,414,8,26,-108,-0.005535082435902524,0.001383770608975631,0.031826724006439516,0.9994771171369294,85,-91,68
840631,14,-37,406,15,26,-121,-0.002767541217951262,0.001383770608975631,0.031826724006439516,0.999488612007924,197,104,57
840681,15,-36,400,15,25,-103,0.001383770608975631,0.0,0.02905918278848825,0.9995767349606367,105,-53,-26
840731,16,-35,395,15,22,-78,-0.008302623653853786,-0.008302623653853786,0.02767541217951262,0.9995480000688406,-700,605,-81
840782,17,-34,392,4,33,-52,-0.015221476698731942,-0.01660524730770757,0.023524100352585727,0.999469453816154,-617,569,-190
840831,37,-62,410,39,-33,4,-0.02767541217951262,-0.030442953397463883,0.01660524730770757,0.9990152971356263,-2230,1773,-381
840882,40,-65,412,1,5,-21,-0.08302623653853786,-0.07472361288468407,0.012453935480780678,0.9936638894589795,-1791,1195,-31
840931,47,-70,412,-33,50,-69,-0.1120854193270261,-0.09132886019239164,0.015221476698731942,0.9893756641020403,351,-278,-213
840981,62,-75,385,16,69,-271,-0.08164246592956223,-0.06642098923083029,0.005535082435902524,0.9944305520291329,1880,-941,-1377
841031,100,-107,389,206,-95,-289,-0.037361806442342035,-0.04566443009619582,-0.031826724006439516,0.9977504271521874,329,48,-1416
841081,121,-121,375,250,-117,-275,-0.015221476698731942,-0.034594265224390776,-0.05396705375004961,0.9978271897328884,629,-53,-436
841131,146,-140,371,297,-179,-203,-0.011070164871805049,-0.0401293476602933,-0.060885906794927766,0.9972762873245457,-1312,1499,-78
841181,160,-154,379,220,-167,-22,-0.0401293476602933,-0.07472361288468407,-0.05535082435902524,0.9948579312527973,-253,683,159
841231,176,-169,380,173,-149,35,-0.03874557705131767,-0.08164246592956223,-0.05258328314107398,0.9945191231695881,50,-39,283
841281,187,-196,414,86,-190,208,-0.0401293476602933,-0.0844100071475135,-0.04843197131414709,0.9944440307550454,-765,352,324
841331,206,-246,485,44,-304,446,-0.05119951253209835,-0.08717754836546475,-0.044280659487220195,0.9938902898070991,-578,43,365
841381,202,-266,529,-84,-263,515,-0.06365344801287903,-0.08856131897444039,-0.0401293476602933,0.9932244292172532,-666,-160,431
841431,186,-269,549,-226,-137,382,-0.09271263080136728,-0.08994508958341602,-0.034594265224390776,0.9910184083877076,-1391,-170,400
841481,163,-262,557,-352,13,171,-0.1286906666347337,-0.08579377775648912,-0.030442953397463883,0.9874975273932679,-250,-1016,308
841531,138,-245,550,-450,190,-82,-0.1286906666347337,-0.0581183655769765,-0.02767541217951262,0.9895933707662268,1415,-1821,286
841581,114,-225,535,-493,318,-289,-0.09686394262829418,-0.017989017916683205,-0.023524100352585727,0.9948569688932662,1067,-1128,251
841631,84,-204,500,-520,413,-510,-0.07749115410263534,0.002767541217951262,-0.01660524730770757,0.9968509053581174,800,-832,179
841681,57,-178,468,-515,492,-580,-0.05396705375004961,0.02629164157053699,-0.012453935480780678,0.9981188336987266,1357,-1250,206
841731,31,-150,438,-481,549,-543,-0.019372788525658834,0.05535082435902524,-0.008302623653853786,0.99824448295394,1264,-792,205
841781,6,-121,414,-413,561,-432,0.009686394262829417,0.07057230105775718,-0.005535082435902524,0.997444277617565,909,-231,140
841831,-11,-93,396,-324,537,-314,0.031826724006439516,0.07610738349365971,-0.004151311826926893,0.9965829079544173,810,-235,116
841881,-28,-63,387,-252,511,-172,0.04843197131414709,0.07749115410263534,-0.002767541217951262,0.9958121338415565,457,54,95
841931,-41,-37,384,-184,464,-59,0.05950213618595213,0.07195607166673282,-0.0,0.99563136729394,545,320,51
841981,-48,-15,383,-102,394,11,0.07195607166673282,0.06503721862185466,-0.0,0.9952851269582125,345,215,94
842031,-51,2,386,-34,315,59,0.07749115410263534,0.05950213618595213,0.001383770608975631,0.9952149024226133,98,367,79
842081,-51,16,389,21,235,72,0.07887492471161096,0.04843197131414709,0.002767541217951262,0.9957034855427445,-75,464,109
842131,-63,40,394,-7,224,83,0.07195607166673282,0.030442953397463883,0.006918853044878155,0.9969190939144837,-183,395,95
842181,-63,50,398,21,159,68,0.07057230105775718,0.024907870961561357,0.009686394262829417,0.9971485957738498,150,-85,111
842231,-67,63,402,17,124,44,0.06918853044878155,0.023524100352585727,0.01383770608975631,0.9972302050415004,-251,152,81
842281,-65,68,404,42,65,11,0.06365344801287903,0.020756559134634464,0.012453935480780678,0.9976784568687462,-182,19,75
842331,-62,70,404,63,7,-8,0.05950213618595213,0.020756559134634464,0.015221476698731942,0.997896271006816,-204,25,109
842381,-58,69,404,82,-44,-19,0.05258328314107398,0.01660524730770757,0.020756559134634464,0.9982627055784694,-355,261,66
842431,-54,66,404,96,-91,-21,0.044280659487220195,0.011070164871805049,0.022140329743610097,0.9987124112796096,-419,115,104
842481,-49,61,406,104,-126,-12,0.03321049461541514,0.008302623653853786,0.022140329743610097,0.9991686220487042,-425,103,84
842531,-44,54,407,110,-152,-10,0.022140329743610097,0.004151311826926893,0.023524100352585727,0.999469453816154,-377,177,87
842581,-39,47,408,110,-167,-1,0.012453935480780678,-0.001383770608975631,0.022140329743610097,0.9996763428574204,-365,108,100
842631,-63,77,389,15,-55,-48,-0.002767541217951262,-0.008302623653853786,0.024907870961561357,0.9996514418137112,-273,21,87
842681,-62,75,386,11,-49,-60,-0.001383770608975631,-0.004151311826926893,0.02629164157053699,0.9996447375805786,626,-584,98
842731,-61,73,383,14,-52,-48,0.012453935480780678,0.009686394262829417,0.02629164157053699,0.9995298008767682,224,-171,61
842781,-64,76,380,7,-38,-33,0.011070164871805049,0.009686394262829417,0.02905918278848825,0.999469453816154,-43,62,25
842831,-63,74,378,20,-48,-23,0.01383770608975631,0.011070164871805049,0.02629164157053699,0.9994972330744147,293,-247,73
842881,-61,71,377,38,-63,-11,0.019372788525658834,0.01660524730770757,0.02629164157053699,0.9993286298361097,53,38,-2
842931,-59,68,377,55,-81,4,0.017989017916683205,0.01383770608975631,0.023524100352585727,0.9994656221337321,-114,130,45
842981,-63,72,377,31,-61,21,0.01383770608975631,0.008302623653853786,0.02767541217951262,0.9994866962052722,-48,0,1
843031,-62,69,379,39,-68,26,0.01383770608975631,0.009686394262829417,0.02767541217951262,0.9994742433985243,147,-96,-26
843081,-58,66,377,58,-79,10,0.01660524730770757,0.012453935480780678,0.020756559134634464,0.9995690724035937,13,-17,35
843131,-58,63,381,55,-87,40,0.015221476698731942,0.009686394262829417,0.02629164157053699,0.9994914857050167,-46,93,-44
843181,-55,60,384,62,-95,48,0.01383770608975631,0.008302623653853786,0.02905918278848825,0.999447421441619,3,-7,-68
843231,-49,56,383,82,-103,28,0.012453935480780678,0.009686394262829417,0.022140329743610097,0.9996303712153156,-118,47,26
843281,-44,50,383,94,-111,15,0.008302623653853786,0.006918853044878155,0.023524100352585727,0.999664850145091,-111,158,-24
843331,-40,45,384,99,-119,17,0.006918853044878155,0.002767541217951262,0.023524100352585727,0.9996954970843631,-79,97,-15
843382,-34,39,384,104,-123,19,0.004151311826926893,0.0,0.024907870961561357,0.9996811314485624,-150,121,-33
843431,-29,33,385,104,-124,20,-0.0,-0.004151311826926893,0.022140329743610097,0.9997462540109664,-129,167,-13
843481,-23,27,387,99,-122,26,-0.002767541217951262,-0.006918853044878155,0.020756559134634464,0.9997567881445171,-112,96,16
843531,-19,21,388,91,-118,28,-0.005535082435902524,-0.009686394262829417,0.020756559134634464,0.999722312385546,-106,91,1
