Timestamp,stateEstimateZ.x,stateEstimateZ.y,stateEstimateZ.z,stateEstimateZ.vx,stateEstimateZ.vy,stateEstimateZ.vz,stateEstimateZ.qw,stateEstimateZ.qx,stateEstimateZ.qy,stateEstimateZ.qz,stateEstimateZ.rateRoll,stateEstimateZ.ratePitch,stateEstimateZ.rateYaw
188277,-277,302,424,-91,103,-7,-0.05258328314107398,-0.0581183655769765,0.019372788525658834,0.9967356464888304,-2811,2917,-44
188325,-284,310,423,-180,182,-21,-0.11070164871805048,-0.12038804298087989,0.01660524730770757,0.9863955240369803,-1256,1217,-41
188375,-296,322,422,-307,296,-41,-0.12177181358985553,-0.1259231254167824,0.01383770608975631,0.9844407091290365,-75,-559,-39
188425,-314,339,419,-425,415,-69,-0.13145820785268494,-0.11762050176292864,0.011070164871805049,0.9842568814099845,-808,61,-96
188475,-338,364,415,-545,554,-85,-0.14529591394244126,-0.11900427237190427,0.005535082435902524,0.9821896168313388,99,-291,-119
188526,-369,396,410,-663,700,-93,-0.13284197846166057,-0.10101525445522107,0.002767541217951262,0.985972244965012,644,-1135,-78
188575,-399,430,402,-742,822,-96,-0.12177181358985553,-0.07610738349365971,0.001383770608975631,0.9896349714777102,537,-1002,-101
188625,-439,478,398,-819,958,-64,-0.10516656628214796,-0.05119951253209835,0.001383770608975631,0.9931347785833501,1075,-1040,-113
188675,-481,526,395,-858,1047,-26,-0.07472361288468407,-0.022140329743610097,-0.001383770608975631,0.9969575079486617,1452,-1307,-79
188725,-525,575,393,-862,1086,13,-0.03874557705131767,0.009686394262829417,-0.002767541217951262,0.999198326029799,1099,-1031,-83
188775,-564,620,397,-808,1053,69,-0.008302623653853786,0.034594265224390776,-0.009686394262829417,0.9993200073150902,961,-991,-9
188825,-600,668,404,-740,1023,112,0.005535082435902524,0.07057230105775718,-0.009686394262829417,0.997444277617565,-756,-1905,28
188875,-630,715,413,-622,995,140,-0.015221476698731942,0.116236731153953,-0.012453935480780678,0.9930268014856367,-636,-1097,-24
188925,-657,763,422,-485,1003,139,-0.019372788525658834,0.13284197846166057,-0.015221476698731942,0.990830969676585,412,-190,-27
188975,-674,810,426,-333,992,101,-0.008302623653853786,0.14252837272448998,-0.017989017916683205,0.9895924032870123,80,-524,18
189025,-686,858,432,-183,984,77,-0.006918853044878155,0.1563660788142463,-0.020756559134634464,0.987456806205563,110,-471,-11
189075,-690,906,435,-22,972,32,0.001383770608975631,0.16328493185912446,-0.022140329743610097,0.9863295199909141,694,189,-20
189125,-686,953,436,132,952,-3,0.019372788525658834,0.15359853759629505,-0.02629164157053699,0.9875935064066319,522,594,36
189175,-678,997,438,267,911,-4,0.030442953397463883,0.13699329028858748,-0.02905918278848825,0.9896775378374574,423,734,68
189225,-661,1042,438,393,873,-18,0.04151311826926893,0.11762050176292864,-0.02905918278848825,0.9917649129064124,546,900,138
189275,-639,1083,441,497,815,1,0.05535082435902524,0.09271263080136728,-0.02629164157053699,0.9938055161429685,473,1023,172
189325,-621,1118,443,540,733,26,0.06642098923083029,0.06365344801287903,-0.02629164157053699,0.995412095731811,280,931,174
189375,-595,1152,445,578,661,41,0.07887492471161096,0.05535082435902524,-0.020756559134634464,0.9951302416002664,913,-1200,224
189425,-566,1182,449,633,568,38,0.1023990250641967,0.08717754836546475,-0.015221476698731942,0.9907990822432159,521,-833,95
189475,-536,1208,449,699,464,5,0.10931787810907485,0.09132886019239164,-0.01383770608975631,0.9897055919372495,56,705,-25
189525,-503,1228,448,757,353,-16,0.1120854193270261,0.07610738349365971,-0.015221476698731942,0.9906628243752481,229,27,63
189575,-467,1243,446,806,243,-31,0.11485296054497737,0.07749115410263534,-0.012453935480780678,0.990277142006689,-158,-150,5
189625,-423,1254,444,880,134,-45,0.10655033689112359,0.07333984227570844,-0.011070164871805049,0.9915370616840671,-376,477,-3
189675,-379,1261,444,932,51,-26,0.09548017201931853,0.060885906794927766,-0.009686394262829417,0.9935203152785079,-354,346,65
189725,-331,1261,443,990,-41,-21,0.08579377775648912,0.05396705375004961,-0.006918853044878155,0.9948261728967291,-505,286,98
189775,-285,1261,446,1013,-90,9,0.06780475983980593,0.0401293476602933,-0.004151311826926893,0.9968825992109308,-576,683,93
189826,-235,1256,448,1036,-143,27,0.05673459496800087,0.020756559134634464,-0.001383770608975631,0.9981725482929337,-314,773,120
189875,-186,1251,451,1030,-173,51,0.04566443009619582,0.001383770608975631,0.004151311826926893,0.9989472516669772,-486,696,99
189926,-136,1243,455,1013,-200,59,0.04289688887824456,-0.022140329743610097,0.006918853044878155,0.9988101882720035,1376,1371,88
189975,-110,1221,442,902,-292,24,0.0982477132372698,-0.06780475983980593,0.008302623653853786,0.9928146694258582,2393,1775,225
190025,-69,1203,444,814,-412,1,0.13560951967961185,-0.09963148384624543,0.011070164871805049,0.9856779783725369,-94,353,292
190075,-31,1179,443,719,-538,-31,0.12038804298087989,-0.10101525445522107,0.015221476698731942,0.987456806205563,-630,-228,192
190125,2,1149,441,623,-655,-48,0.116236731153953,-0.1023990250641967,0.017989017916683205,0.9877650820063133,263,423,128
190175,31,1113,439,520,-773,-66,0.116236731153953,-0.11346918993600175,0.020756559134634464,0.9865003449157034,-600,240,128
190225,54,1072,435,407,-883,-77,0.09132886019239164,-0.11346918993600175,0.020756559134634464,0.9891172566910945,-1297,-351,86
190275,69,1024,442,286,-969,-39,0.06226967740390339,-0.10516656628214796,0.015221476698731942,0.9923864102553734,-955,-351,98
190325,81,974,440,184,-1023,-34,0.037361806442342035,-0.09686394262829418,0.015221476698731942,0.9944796522226975,-1081,-322,25
190375,69,968,413,38,-909,-101,0.0,-0.08994508958341602,0.01660524730770757,0.9958082880864575,-1301,-556,5
190425,69,925,406,-41,-887,-99,-0.023524100352585727,-0.07333984227570844,0.020756559134634464,0.9968134476874126,-33,-964,-83
190475,66,884,400,-109,-848,-87,-0.017989017916683205,-0.05396705375004961,0.023524100352585727,0.998103486140858,788,443,-109
190525,59,844,396,-180,-828,-52,0.008302623653853786,-0.09132886019239164,0.02629164157053699,0.995439026419975,1249,2347,-100
190575,47,804,393,-298,-847,-32,0.03321049461541514,-0.13284197846166057,0.02905918278848825,0.9901543494331864,370,364,-23
190625,30,759,394,-434,-898,3,0.034594265224390776,-0.1286906666347337,0.03597803583336641,0.990427952994192,-144,-449,-97
190675,22,726,411,-518,-893,66,0.034594265224390776,-0.12038804298087989,0.031826724006439516,0.9916133397448,421,216,-146
190725,-6,681,414,-643,-933,66,0.04566443009619582,-0.12453935480780678,0.031826724006439516,0.9906521935407314,336,-165,-78
190775,-34,640,421,-736,-956,69,0.04566443009619582,-0.1120854193270261,0.02905918278848825,0.9922233531286893,-269,-782,-49
190825,-67,596,431,-805,-973,89,0.03874557705131767,-0.08994508958341602,0.022140329743610097,0.9949464643475225,-23,-574,-19
190875,-105,550,432,-857,-987,61,0.0401293476602933,-0.07749115410263534,0.017989017916683205,0.9960226662715032,170,-300,-82
190925,-147,502,434,-910,-1016,39,0.03874557705131767,-0.06503721862185466,0.015221476698731942,0.9970141659475071,-280,-618,-12
190975,-187,455,438,-928,-1025,39,0.030442953397463883,-0.04151311826926893,0.012453935480780678,0.998596408510987,-256,-941,-34
191025,-231,404,438,-939,-1043,26,0.024907870961561357,-0.019372788525658834,0.011070164871805049,0.9994407158399208,-31,-597,-7
191075,-275,355,442,-932,-1043,37,0.023524100352585727,-0.009686394262829417,0.006918853044878155,0.9996523995576312,-32,-131,30
191125,-319,305,445,-924,-1050,36,0.020756559134634464,-0.001383770608975631,0.005535082435902524,0.9997682797999844,-52,-630,69
191175,-363,255,446,-900,-1047,22,0.01660524730770757,0.019372788525658834,0.004151311826926893,0.999665807876165,-133,-721,9
191225,-404,205,446,-859,-1048,6,0.01383770608975631,0.034594265224390776,0.005535082435902524,0.999290306950981,77,-403,45
191275,-438,148,446,-778,-1075,-8,0.017989017916683205,0.04566443009619582,0.009686394262829417,0.9987478805106762,53,-328,28
191325,-474,94,444,-718,-1088,-32,0.01660524730770757,0.05396705375004961,0.011070164871805049,0.9983432647747468,-216,-250,-11
191375,-506,41,444,-650,-1089,-32,0.011070164871805049,0.060885906794927766,0.009686394262829417,0.9980363378002103,-42,-200,-18
191425,-535,-10,443,-575,-1085,-26,0.011070164871805049,0.06642098923083029,0.009686394262829417,0.9976832550491634,114,-85,33
191475,-560,-63,442,-499,-1086,-19,0.011070164871805049,0.06780475983980593,0.009686394262829417,0.9975901662300818,-102,7,29
191525,-583,-117,441,-427,-1088,-21,0.006918853044878155,0.06780475983980593,0.009686394262829417,0.9976275947375326,-231,100,2
191575,-602,-170,440,-356,-1085,-21,-0.001383770608975631,0.06503721862185466,0.009686394262829417,0.9978348656661682,-359,138,6
191625,-617,-224,439,-287,-1076,-19,-0.008302623653853786,0.07749115410263534,0.011070164871805049,0.9968970051745643,-22,-1596,29
191675,-629,-277,438,-184,-1060,-27,-0.012453935480780678,0.12315558419883116,0.012453935480780678,0.9922310724134403,-393,-1367,33
191725,-639,-325,436,-67,-1026,-32,-0.02629164157053699,0.13699329028858748,0.015221476698731942,0.9901060017223121,-478,58,-11
191775,-639,-375,436,67,-989,-36,-0.03321049461541514,0.1383770608975631,0.017989017916683205,0.9896591571339826,-179,-461,25
191825,-631,-423,432,212,-949,-64,-0.04289688887824456,0.15359853759629505,0.017989017916683205,0.9870378621953872,-562,-485,-5
191875,-621,-467,433,343,-885,-61,-0.05673459496800087,0.15774984942322193,0.019372788525658834,0.9856575804028028,-461,-34,-25
191925,-600,-510,429,497,-822,-80,-0.06642098923083029,0.1563660788142463,0.020756559134634464,0.9852446735906494,-267,127,-36
191975,-571,-549,425,651,-749,-89,-0.07333984227570844,0.14806345516039252,0.020756559134634464,0.9860363309908166,-389,683,-55
192025,-535,-584,420,790,-668,-96,-0.0802586953205866,0.12453935480780678,0.022140329743610097,0.988715478147448,-160,1185,-62
192075,-496,-621,407,888,-605,-120,-0.08302623653853786,0.09409640141034291,0.022140329743610097,0.9918479304241727,-128,1125,-55
192125,-467,-639,409,900,-474,-51,-0.08717754836546475,0.06226967740390339,0.023524100352585727,0.993966387278565,-13,940,-49
192175,-425,-662,407,928,-394,-24,-0.09132886019239164,0.04289688887824456,0.023524100352585727,0.9946182749794654,-896,238,31
192225,-379,-679,411,958,-281,20,-0.12453935480780678,0.0401293476602933,0.02629164157053699,0.9910541529825405,-1501,-139,14
192275,-337,-692,412,957,-154,28,-0.14529591394244126,0.037361806442342035,0.02767541217951262,0.9882951301972958,-55,242,-34
192325,-298,-698,417,926,-17,48,-0.14114460211551436,0.02629164157053699,0.02905918278848825,0.9892130785492299,17,153,-19
192375,-256,-698,416,925,106,21,-0.14806345516039252,0.023524100352585727,0.023524100352585727,0.9884181537442387,-493,-194,-71
192425,-212,-690,417,928,249,11,-0.15083099637834377,0.023524100352585727,0.020756559134634464,0.9880616339515506,604,299,-62
192475,-168,-677,416,922,371,-2,-0.1259231254167824,0.008302623653853786,0.020756559134634464,0.9917880812848188,1043,714,-130
192527,-125,-655,427,900,493,70,-0.10378279567317232,-0.008302623653853786,0.022140329743610097,0.9943188641283878,573,367,-169
192575,-84,-634,430,865,561,71,-0.08717754836546475,-0.017989017916683205,0.017989017916683205,0.9958678956215897,774,324,-221
192625,-45,-612,424,828,593,15,-0.06226967740390339,-0.02905918278848825,0.012453935480780678,0.9975584948576798,999,529,-182
192675,-13,-591,420,794,603,-28,-0.04151311826926893,-0.0401293476602933,0.008302623653853786,0.9982972317443255,579,379,-159
192725,22,-563,428,724,619,40,-0.02629164157053699,-0.05119951253209835,0.008302623653853786,0.9983077811679444,-337,1004,-106
192775,59,-533,420,663,626,-30,-0.047048200705171454,-0.09132886019239164,-0.002767541217951262,0.994704904392238,-1614,2000,-197
192827,88,-502,424,544,677,-2,-0.07610738349365971,-0.13145820785268494,-0.011070164871805049,0.9883338794231534,-121,376,-89
192875,109,-469,437,384,739,70,-0.07195607166673282,-0.13560951967961185,-0.011070164871805049,0.9880839202073213,150,29,-116
192925,124,-434,432,253,785,-10,-0.07195607166673282,-0.14391214333346564,-0.01660524730770757,0.9868312340584432,-325,735,-101
192975,132,-400,437,102,815,-11,-0.07195607166673282,-0.1605173906411732,-0.019372788525658834,0.9842160261430318,206,295,-157
193025,133,-359,439,-50,878,-38,-0.06503721862185466,-0.16328493185912446,-0.017989017916683205,0.9842685540319204,225,-187,-54
193075,126,-319,431,-204,909,-106,-0.05950213618595213,-0.1605173906411732,-0.017989017916683205,0.985073630915705,126,-26,-77
193125,111,-275,422,-361,953,-155,-0.05396705375004961,-0.1563660788142463,-0.015221476698731942,0.9861062382689333,344,-549,-80
193175,90,-227,414,-504,994,-156,-0.04566443009619582,-0.13560951967961185,-0.01383770608975631,0.9896127201518926,207,-1138,-98
193225,64,-180,408,-617,1017,-131,-0.03874557705131767,-0.10655033689112359,-0.012453935480780678,0.9934740587747569,210,-1027,-168
193275,35,-134,395,-683,1027,-131,-0.02905918278848825,-0.08164246592956223,-0.024907870961561357,0.9959265382631229,451,-1004,-57
193325,3,-87,393,-740,1024,-51,-0.012453935480780678,-0.05396705375004961,-0.024907870961561357,0.998154324022464,507,-1062,-39
193375,-31,-39,395,-763,1009,27,0.001383770608975631,-0.02629164157053699,-0.024907870961561357,0.9993430005391494,439,-942,-49
193425,-65,7,399,-752,981,81,0.015221476698731942,-0.002767541217951262,-0.02767541217951262,0.9994972330744147,490,-784,-68
193475,-101,56,402,-739,965,102,0.02629164157053699,0.015221476698731942,-0.02905918278848825,0.9991159192637767,367,-584,-48
193525,-135,106,406,-699,948,104,0.03597803583336641,0.031826724006439516,-0.034594265224390776,0.9982464011406079,532,-592,-3
193575,-157,135,421,-601,819,142,0.05673459496800087,0.04843197131414709,-0.03321049461541514,0.9966607210760551,588,-420,-16
193625,-182,169,432,-536,729,137,0.06780475983980593,0.05396705375004961,-0.031826724006439516,0.9957294468336383,-193,244,-41
193675,-207,202,438,-483,654,107,0.060885906794927766,0.047048200705171454,-0.030442953397463883,0.9965704188629146,-221,192,-30
193725,-221,241,448,-387,612,81,0.0581183655769765,0.049815741923122714,-0.03321049461541514,0.9965127748738143,78,-19,34
193775,-237,270,452,-330,557,34,0.05950213618595213,0.044280659487220195,-0.034594265224390776,0.9966453510643943,-337,1001,41
193825,-253,298,451,-305,516,-31,0.01660524730770757,-0.008302623653853786,-0.03321049461541514,0.9992759354901487,-3238,3305,9
193875,-269,325,449,-348,542,-66,-0.06503721862185466,-0.08164246592956223,-0.037361806442342035,0.9938353804178226,-2066,1904,17
193925,-289,354,445,-434,620,-93,-0.0844100071475135,-0.10101525445522107,-0.03597803583336641,0.9906444619530645,363,-269,72
193975,-313,387,439,-524,700,-124,-0.08164246592956223,-0.09548017201931853,-0.034594265224390776,0.9914742968537743,-432,244,35
194025,-341,424,432,-617,788,-145,-0.09686394262829418,-0.10516656628214796,-0.034594265224390776,0.9891211284612769,-394,228,-46
194075,-375,466,425,-720,892,-142,-0.09409640141034291,-0.0982477132372698,-0.03597803583336641,0.9900499154198458,570,-876,-6
194125,-413,513,418,-810,987,-121,-0.07887492471161096,-0.07333984227570844,-0.037361806442342035,0.9934808046490263,563,-1007,17
194175,-455,565,413,-875,1067,-86,-0.060885906794927766,-0.05119951253209835,-0.037361806442342035,0.996130318627839,904,-946,16
194225,-501,631,396,-921,1158,-83,-0.037361806442342035,-0.024907870961561357,-0.03321049461541514,0.9984391601048742,1221,-1246,18
194275,-546,687,398,-930,1176,-11,-0.001383770608975631,0.006918853044878155,-0.03597803583336641,0.9993276717818926,1342,-1305,58
194325,-589,742,397,-886,1135,16,0.031826724006439516,0.034594265224390776,-0.034594265224390776,0.9982953136553266,1001,-876,56
194377,-632,796,401,-835,1083,60,0.04151311826926893,0.06226967740390339,-0.031826724006439516,0.9966876180261263,-1051,-1595,97
194425,-667,845,404,-720,1020,69,0.011070164871805049,0.10793410750009921,-0.02629164157053699,0.99374867520485,-1163,-1482,-7
194477,-697,895,410,-581,1007,89,0.004151311826926893,0.13284197846166057,-0.02767541217951262,0.9907420688197315,683,-300,-25
194525,-722,945,412,-441,987,61,0.020756559134634464,0.13699329028858748,-0.030442953397463883,0.9898864734186629,214,-229,-2
194576,-740,993,414,-302,959,33,0.019372788525658834,0.14806345516039252,-0.030442953397463883,0.9883193486414937,-91,-579,-22
194627,-751,1039,416,-151,929,14,0.024907870961561357,0.15913362003219755,-0.03321049461541514,0.9863838765850798,663,-186,-44
194677,-750,1086,423,17,898,12,0.0401293476602933,0.15913362003219755,-0.037361806442342035,0.9857333421626624,480,214,-15
194725,-745,1130,423,163,849,-18,0.049815741923122714,0.15083099637834377,-0.0401293476602933,0.9864877281773576,302,488,23
194775,-734,1171,423,301,792,-29,0.05950213618595213,0.13560951967961185,-0.04151311826926893,0.9881023302133919,539,699,41
194825,-717,1209,426,415,724,-22,0.07057230105775718,0.11346918993600175,-0.04289688887824456,0.9901031007845841,391,978,104
194877,-700,1238,427,486,658,-14,0.07610738349365971,0.09132886019239164,-0.04151311826926893,0.992040002462234,197,945,167
194925,-674,1270,426,559,583,-22,0.08164246592956223,0.07057230105775718,-0.03874557705131767,0.9934046699806247,640,-201,201
194975,-650,1295,426,599,488,-19,0.1023990250641967,0.0844100071475135,-0.03321049461541514,0.9905990376568403,736,-1149,187
195025,-620,1320,424,675,401,-44,0.11485296054497737,0.10101525445522107,-0.02767541217951262,0.9878455280974323,57,397,-11
195075,-591,1336,422,727,280,-44,0.11485296054497737,0.0844100071475135,-0.030442953397463883,0.9893214718865908,11,413,55
195125,-554,1350,418,798,180,-59,0.11485296054497737,0.0802586953205866,-0.02629164157053699,0.9897858803109981,-42,-217,81
195175,-512,1359,417,875,76,-49,0.10931787810907485,0.0802586953205866,-0.024907870961561357,0.9904482527196102,-335,450,19
195226,-468,1362,416,938,-23,-34,0.09963148384624543,0.06503721862185466,-0.024907870961561357,0.9925841654916174,-358,610,81
195275,-423,1361,415,975,-101,-21,0.08856131897444039,0.05119951253209835,-0.022140329743610097,0.9945075708594817,-523,272,128
195325,-375,1357,416,1007,-159,3,0.07333984227570844,0.04289688887824456,-0.01660524730770757,0.9962456475294593,-503,300,99
195375,-324,1348,417,1040,-221,27,0.06226967740390339,0.031826724006439516,-0.012453935480780678,0.997474032948263,-402,699,113
195425,-275,1340,422,1042,-244,57,0.04843197131414709,0.009686394262829417,-0.008302623653853786,0.9987450046740024,-464,811,131
195475,-224,1328,426,1034,-273,72,0.03597803583336641,-0.009686394262829417,-0.004151311826926893,0.9992970135619708,414,940,154
195525,-174,1316,432,1002,-296,90,0.06780475983980593,-0.04151311826926893,0.001383770608975631,0.9968336173773082,2664,1763,168
195575,-151,1288,415,860,-423,4,0.1259231254167824,-0.08994508958341602,0.004151311826926893,0.9879453496804448,579,1378,262
195625,-110,1264,414,765,-545,-34,0.12177181358985553,-0.1120854193270261,0.008302623653853786,0.9861741989272406,-1051,-306,265
195675,-75,1234,412,660,-656,-52,0.1023990250641967,-0.10101525445522107,0.012453935480780678,0.9895227422976642,40,-262,142
195725,-51,1195,409,533,-778,-50,0.10655033689112359,-0.1023990250641967,0.01383770608975631,0.9889236488548869,-142,187,239
195777,-28,1152,409,423,-890,-49,0.09409640141034291,-0.10516656628214796,0.012453935480780678,0.989914521597237,-961,-203,160
195825,-13,1116,398,300,-926,-71,0.06780475983980593,-0.09963148384624543,0.019372788525658834,0.9925224315018788,-711,-524,7
195875,-1,1068,395,205,-989,-61,0.049815741923122714,-0.08717754836546475,0.017989017916683205,0.9947838268448222,-804,-474,-17
195925,7,1015,392,116,-1034,-41,0.023524100352585727,-0.07610738349365971,0.01660524730770757,0.9966837756491275,-1167,-405,-56
195977,11,991,387,37,-922,-29,-0.008302623653853786,-0.06642098923083029,0.009686394262829417,0.9977101244330667,-439,-627,-50
196025,11,948,383,-22,-892,-25,-0.015221476698731942,-0.05119951253209835,0.015221476698731942,0.9984564202861813,119,-172,-58
196077,14,908,386,-57,-856,22,-0.002767541217951262,-0.07057230105775718,0.012453935480780678,0.9974250801589365,1251,2206,-120
196125,9,866,387,-152,-865,35,0.02767541217951262,-0.12038804298087989,0.015221476698731942,0.9922243180425674,737,1188,6
196177,0,823,387,-280,-890,24,0.03321049461541514,-0.1342257490706362,0.020756559134634464,0.9901765885874684,-182,-210,-57
196225,-11,783,393,-383,-897,50,0.02905918278848825,-0.13007443724370932,0.019372788525658834,0.9908889441991658,302,253,-106
196275,-33,737,396,-515,-933,44,0.04151311826926893,-0.1383770608975631,0.017989017916683205,0.9893456652067097,436,198,-55
196325,-62,690,397,-646,-977,16,0.044280659487220195,-0.1342257490706362,0.017989017916683205,0.9897974877297864,-252,-628,-47
196375,-93,640,388,-741,-1021,-48,0.03597803583336641,-0.11485296054497737,0.020756559134634464,0.9925137498516166,-236,-736,-112
196425,-132,588,386,-847,-1058,-52,0.034594265224390776,-0.09963148384624543,0.017989017916683205,0.9942601266643318,-19,-630,-69
196475,-177,534,383,-941,-1093,-43,0.031826724006439516,-0.08164246592956223,0.01660524730770757,0.9960149763722471,-254,-805,-73
196525,-226,478,382,-1017,-1124,-16,0.024907870961561357,-0.0581183655769765,0.015221476698731942,0.997882838911429,-228,-1159,-105
196575,-278,422,381,-1066,-1148,12,0.01660524730770757,-0.02905918278848825,0.012453935480780678,0.9993621611550818,-481,-1103,-129
196625,-332,364,383,-1086,-1161,42,0.006918853044878155,-0.008302623653853786,0.008302623653853786,0.9999071268640244,-139,-622,-159
196675,-387,306,386,-1088,-1167,61,0.004151311826926893,0.009686394262829417,0.005535082435902524,0.9999291491094399,-158,-911,-109
196725,-441,247,389,-1069,-1170,72,-0.001383770608975631,0.03597803583336641,0.002767541217951262,0.9993477907275733,-264,-1087,-116
196775,-493,189,393,-1022,-1167,86,-0.005535082435902524,0.05950213618595213,0.0,0.9982128323417487,-55,-747,-87
196825,-543,130,397,-958,-1161,77,-0.006918853044878155,0.07610738349365971,-0.001383770608975631,0.9970746616122557,-68,-649,-21
196875,-466,174,442,-598,-925,101,-0.019372788525658834,0.10655033689112359,-0.008302623653853786,0.9940838934484306,-39,-528,95
196925,-489,144,439,-503,-886,67,-0.01660524730770757,0.10655033689112359,-0.015221476698731942,0.9940521103631076,1017,1559,120
196977,-475,56,466,-308,-974,77,0.01660524730770757,0.06503721862185466,-0.009686394262829417,0.9976976494519609,763,1947,213
197025,-486,8,470,-243,-985,37,0.024907870961561357,0.023524100352585727,-0.005535082435902524,0.9993976073261289,-421,838,212
197076,-502,-44,469,-253,-1015,-16,0.01660524730770757,0.006918853044878155,-0.002767541217951262,0.9998343542557437,-47,280,157
197125,-516,-95,466,-258,-1025,-60,0.01660524730770757,-0.002767541217951262,0.002767541217951262,0.9998544630060235,-66,561,101
197175,-529,-146,461,-266,-1035,-109,0.011070164871805049,-0.004151311826926893,0.005535082435902524,0.9999147868304851,-378,-1814,161
197225,-541,-197,453,-242,-1036,-147,0.001383770608975631,0.06503721862185466,0.008302623653853786,0.9978473389318114,-373,-3304,154
197275,-548,-247,444,-138,-1022,-176,-0.009686394262829417,0.1259231254167824,0.011070164871805049,0.9919309409939612,-459,-405,0
197325,-552,-297,435,-11,-1006,-178,-0.019372788525658834,0.12177181358985553,0.01383770608975631,0.9922725625401274,-426,236,71
197376,-547,-345,424,125,-970,-168,-0.034594265224390776,0.13007443724370932,0.01660524730770757,0.9907613957715383,-766,-1119,27
197425,-537,-392,416,274,-919,-163,-0.05258328314107398,0.15359853759629505,0.017989017916683205,0.9865692488704371,-451,-79,-6
197475,-519,-436,408,433,-856,-143,-0.060885906794927766,0.14114460211551436,0.019372788525658834,0.987924998525775,-236,1226,-42
197525,-495,-477,402,562,-786,-115,-0.06780475983980593,0.11070164871805048,0.020756559134634464,0.9913207476730536,-408,841,-33
197576,-472,-509,400,643,-691,-66,-0.0802586953205866,0.09132886019239164,0.019372788525658834,0.9923921987733156,-312,663,-30
197625,-440,-541,400,713,-601,-14,-0.0844100071475135,0.06918853044878155,0.019372788525658834,0.9938373071144164,90,1086,-73
197675,-404,-570,397,767,-526,-11,-0.0802586953205866,0.04289688887824456,0.01660524730770757,0.9957121393815859,15,983,-48
197725,-365,-595,397,800,-443,5,-0.0844100071475135,0.022140329743610097,0.017989017916683205,0.9960226662715032,-925,19,-31
197775,-334,-608,410,761,-307,90,-0.11900427237190427,0.030442953397463883,0.017989017916683205,0.9922638787036776,-1498,-1021,-59
197825,-299,-619,423,775,-160,138,-0.14529591394244126,0.04566443009619582,0.015221476698731942,0.9882166583612777,-30,11,-110
197875,-268,-634,417,778,-70,67,-0.13976083150653873,0.03597803583336641,0.012453935480780678,0.9894530764039366,15,527,-90
197925,-230,-633,423,797,67,55,-0.14391214333346564,0.02629164157053699,0.01383770608975631,0.9891443587641129,-358,-19,-166
197975,-194,-635,414,799,166,-38,-0.14529591394244126,0.023524100352585727,0.006918853044878155,0.98908434603262,480,313,-114
198025,-153,-627,401,804,285,-119,-0.12730689602575807,0.008302623653853786,0.004151311826926893,0.9918199369214479,649,683,-124
198075,-122,-616,392,798,364,-146,-0.116236731153953,-0.004151311826926893,0.001383770608975631,0.9932118978947347,388,367,-87
198125,-82,-595,394,742,473,-54,-0.09963148384624543,-0.017989017916683205,-0.001383770608975631,0.994860818325805,723,344,-62
198175,-46,-572,392,713,550,-9,-0.07749115410263534,-0.02767541217951262,-0.002767541217951262,0.9966050036559834,832,432,-18
198225,-12,-548,393,671,593,40,-0.05535082435902524,-0.03874557705131767,-0.002767541217951262,0.9977110840405371,725,356,-3
198275,20,-517,396,627,644,72,-0.037361806442342035,-0.047048200705171454,-0.001383770608975631,0.998192690520559,557,521,12
198325,49,-491,405,560,637,107,-0.04151311826926893,-0.07887492471161096,0.001383770608975631,0.9960188213292965,-1354,2060,-70
198375,74,-462,411,458,666,109,-0.07195607166673282,-0.12453935480780678,-0.004151311826926893,0.9895933707662268,-743,991,-57
198425,91,-431,423,317,716,122,-0.07333984227570844,-0.13145820785268494,-0.0,0.9886050814775,445,-177,-58
198475,106,-393,428,207,784,77,-0.06918853044878155,-0.13699329028858748,-0.002767541217951262,0.9881488381746203,-309,911,-142
198525,113,-353,433,71,846,37,-0.07610738349365971,-0.15913362003219755,-0.004151311826926893,0.9843103797904972,-145,415,-180
198575,113,-313,428,-69,894,-54,-0.07057230105775718,-0.1605173906411732,-0.011070164871805049,0.9844445992918409,447,-198,-117
198625,107,-269,427,-208,940,-92,-0.05950213618595213,-0.1605173906411732,-0.008302623653853786,0.98520288749654,158,237,-206
198675,89,-229,414,-368,954,-173,-0.05396705375004961,-0.16190116125014883,-0.01383770608975631,0.9852330125333632,214,-393,-156
198725,68,-186,404,-514,976,-200,-0.04289688887824456,-0.14252837272448998,-0.01383770608975631,0.9887638938509283,299,-1152,-55
198775,39,-139,391,-642,1004,-211,-0.037361806442342035,-0.11485296054497737,-0.017989017916683205,0.992516643743475,-56,-1085,-23
198825,7,-93,385,-730,1006,-150,-0.03321049461541514,-0.0844100071475135,-0.015221476698731942,0.9957611763810971,328,-1153,-31
198875,-29,-46,378,-795,1014,-104,-0.017989017916683205,-0.05535082435902524,-0.01660524730770757,0.9981667932961001,667,-1116,-14
198925,-64,-1,377,-809,991,-35,-0.001383770608975631,-0.02629164157053699,-0.015221476698731942,0.9995374637348707,312,-1000,42
198975,-101,45,377,-808,975,26,0.008302623653853786,-0.002767541217951262,-0.01660524730770757,0.9998238209394289,400,-737,21
199025,-139,92,381,-790,949,75,0.022140329743610097,0.015221476698731942,-0.01660524730770757,0.9995010646356531,585,-665,32
199075,-167,127,386,-735,901,99,0.034594265224390776,0.03321049461541514,-0.017989017916683205,0.9986874862014529,341,-595,-5
199125,-200,170,392,-677,850,112,0.04289688887824456,0.04566443009619582,-0.017989017916683205,0.9978732444468839,167,-106,-45
199175,-228,209,399,-600,790,104,0.04843197131414709,0.049815741923122714,-0.020756559134634464,0.9973674855659597,253,-82,-23
199225,-253,244,404,-531,723,80,0.05535082435902524,0.05258328314107398,-0.020756559134634464,0.9968653117797671,80,60,-16
199275,-277,279,408,-475,669,58,0.0581183655769765,0.05119951253209835,-0.020756559134634464,0.9967798306306297,144,88,-43
199325,-298,312,411,-417,616,39,0.060885906794927766,0.049815741923122714,-0.023524100352585727,0.996623256257353,48,87,-1
199375,-317,342,413,-373,562,5,0.047048200705171454,0.034594265224390776,-0.023524100352585727,0.9980161924170328,-2256,2524,8
199425,-337,371,411,-373,552,-22,-0.023524100352585727,-0.0401293476602933,-0.023524100352585727,0.9986405103246925,-2762,3030,-43
199475,-357,399,410,-437,602,-40,-0.07472361288468407,-0.09409640141034291,-0.024907870961561357,0.9924423645145575,-274,283,63
199525,-383,436,405,-538,701,-68,-0.07749115410263534,-0.09132886019239164,-0.020756559134634464,0.9925841654916174,-69,-316,84
199575,-412,473,401,-624,780,-79,-0.0844100071475135,-0.08994508958341602,-0.019372788525658834,0.9921741412765847,-383,280,12
199625,-445,514,397,-715,870,-72,-0.08717754836546475,-0.08994508958341602,-0.019372788525658834,0.9919348017816284,376,-644,16
199675,-483,560,394,-799,958,-57,-0.07610738349365971,-0.06918853044878155,-0.019372788525658834,0.9945075708594817,491,-1001,18
199725,-525,609,391,-860,1033,-34,-0.06226967740390339,-0.04566443009619582,-0.020756559134634464,0.996798080030702,819,-886,11
199775,-568,664,385,-895,1095,-19,-0.03874557705131767,-0.022140329743610097,-0.01660524730770757,0.9988657826853689,1097,-1117,-20
199825,-614,717,383,-904,1108,11,-0.009686394262829417,0.006918853044878155,-0.015221476698731942,0.9998132875121426,1065,-1098,-19
199875,-660,771,384,-887,1098,38,0.01660524730770757,0.031826724006439516,-0.01660524730770757,0.9992174894199549,956,-881,-52
199925,-709,816,381,-848,1027,50,0.037361806442342035,0.05673459496800087,-0.01660524730770757,0.9975517765585061,-576,-1524,28
199975,-732,872,401,-727,996,113,0.011070164871805049,0.09963148384624543,-0.01660524730770757,0.9948242481152921,-1444,-1452,8
200025,-767,925,410,-615,1009,129,-0.011070164871805049,0.1286906666347337,-0.020756559134634464,0.9914057338061493,453,-429,-39
200076,-795,978,416,-483,1020,106,0.005535082435902524,0.13560951967961185,-0.024907870961561357,0.990433752958195,620,-256,12
200125,-814,1027,418,-338,995,52,0.015221476698731942,0.14529591394244126,-0.02767541217951262,0.9888839545666795,60,-553,-14
200176,-825,1075,417,-183,962,-6,0.022140329743610097,0.15913362003219755,-0.02905918278848825,0.9865808941338554,558,-214,-31
200225,-829,1119,414,-17,908,-49,0.03874557705131767,0.16190116125014883,-0.03321049461541514,0.9854866093926458,574,21,-15
200276,-825,1161,411,140,843,-83,0.049815741923122714,0.1605173906411732,-0.034594265224390776,0.9851679024267804,148,356,26
200325,-814,1201,408,290,780,-92,0.05396705375004961,0.1466796845514169,-0.03597803583336641,0.9870553217459541,323,869,48
200375,-798,1237,410,417,709,-56,0.06226967740390339,0.12177181358985553,-0.03874557705131767,0.9898448832771788,345,1013,129
200426,-776,1271,410,517,641,-40,0.06918853044878155,0.09548017201931853,-0.037361806442342035,0.9923208046921441,125,917,168
200475,-751,1302,409,588,571,-23,0.07333984227570844,0.07472361288468407,-0.03321049461541514,0.9939490491266811,567,28,200
200525,-721,1330,410,652,502,-13,0.09271263080136728,0.08579377775648912,-0.02767541217951262,0.9916036846184334,813,-1021,174
200575,-694,1351,409,703,394,-13,0.10793410750009921,0.09686394262829418,-0.024907870961561357,0.989114352853512,166,367,24
200625,-661,1369,409,764,292,-15,0.10793410750009921,0.08164246592956223,-0.024907870961561357,0.9904869177123237,-40,424,61
200675,-626,1380,410,812,178,0,0.10931787810907485,0.07472361288468407,-0.023524100352585727,0.9909150316277329,-49,-113,94
200725,-587,1388,410,865,84,-2,0.10378279567317232,0.07333984227570844,-0.020756559134634464,0.9916751303275309,-366,341,70
200775,-543,1392,410,924,0,-7,0.09271263080136728,0.06226967740390339,-0.017989017916683205,0.993581023671596,-407,400,73
200825,-501,1389,410,951,-93,6,0.08302623653853786,0.05119951253209835,-0.017989017916683205,0.9950686655689222,-360,262,114
200875,-454,1386,410,988,-150,9,0.07057230105775718,0.044280659487220195,-0.01383770608975631,0.996427263481366,-637,313,100
200926,-408,1383,412,1006,-174,30,0.05396705375004961,0.034594265224390776,-0.008302623653853786,0.997908743504929,-305,255,96
200975,-364,1373,412,1002,-222,33,0.04566443009619582,0.023524100352585727,-0.006918853044878155,0.998655849629458,-433,544,113
201025,-315,1363,414,1009,-244,39,0.03321049461541514,0.006918853044878155,-0.002767541217951262,0.9994205987648793,143,915,113
201075,-266,1353,417,995,-261,53,0.06226967740390339,-0.023524100352585727,0.0,0.9977820924323183,2774,1648,152
201125,-219,1340,421,944,-329,54,0.12177181358985553,-0.06642098923083029,0.009686394262829417,0.9902858432648729,997,1420,220
201175,-175,1322,425,862,-440,35,0.12453935480780678,-0.09409640141034291,0.015221476698731942,0.9876254973383326,-664,347,151
201225,-133,1296,426,768,-559,11,0.11346918993600175,-0.09963148384624543,0.01660524730770757,0.9883939377210449,206,201,118
201275,-97,1266,426,673,-671,-21,0.12177181358985553,-0.10931787810907485,0.019372788525658834,0.9863295199909141,16,604,107
201325,-66,1229,424,566,-786,-59,0.11070164871805048,-0.12038804298087989,0.019372788525658834,0.9863450507520577,-1125,-126,118
201375,-53,1199,423,400,-823,-60,0.07610738349365971,-0.11762050176292864,0.024907870961561357,0.9898245711776144,-813,-276,49
201425,-36,1156,420,287,-895,-69,0.06503721862185466,-0.11485296054497737,0.023524100352585727,0.9909720351001781,-88,-80,-23
201475,-24,1110,416,179,-959,-82,0.05535082435902524,-0.10655033689112359,0.023524100352585727,0.9924867397873717,-1012,-757,5
201525,-18,1061,412,82,-1005,-85,0.024907870961561357,-0.0844100071475135,0.020756559134634464,0.9959034661604554,-1198,-935,-66
201575,-23,1020,398,-17,-970,-108,-0.001383770608975631,-0.07057230105775718,0.019372788525658834,0.9973175675616344,-647,-156,-74
201625,-21,978,393,-81,-942,-105,-0.008302623653853786,-0.08302623653853786,0.022140329743610097,0.9962667897132542,724,1482,-133
201675,-59,913,361,-244,-985,-139,0.020756559134634464,-0.12453935480780678,0.01660524730770757,0.9918585484426675,837,1234,-15
201725,-74,864,352,-383,-1004,-129,0.023524100352585727,-0.14114460211551436,0.020756559134634464,0.9894917802837702,-623,-100,-23
201775,-96,815,344,-529,-1019,-100,0.012453935480780678,-0.1342257490706362,0.023524100352585727,0.990593238660586,292,-470,-71
201825,-111,773,351,-606,-997,-21,0.023524100352585727,-0.12038804298087989,0.017989017916683205,0.9922851057252793,371,-110,44
201875,-143,723,347,-720,-1026,-4,0.02629164157053699,-0.116236731153953,0.024907870961561357,0.9925610156954243,-99,-378,-53
201925,-170,679,356,-785,-1018,65,0.020756559134634464,-0.09686394262829418,0.023524100352585727,0.9948030752736918,66,-723,-24
201975,-202,633,366,-827,-1014,121,0.023524100352585727,-0.07749115410263534,0.015221476698731942,0.9965992396071517,194,-387,-20
202025,-242,582,372,-881,-1040,128,0.02629164157053699,-0.06918853044878155,0.015221476698731942,0.997140914557704,-39,-340,-48
202075,-282,532,381,-909,-1047,143,0.022140329743610097,-0.05119951253209835,0.01383770608975631,0.9983471007648058,-189,-963,-73
202125,-329,479,388,-949,-1067,140,0.015221476698731942,-0.02767541217951262,0.012453935480780678,0.9994234726575341,-306,-762,-105
202175,-367,428,392,-914,-1070,102,0.009686394262829417,-0.009686394262829417,0.008302623653853786,0.9998716987558116,24,-155,-138
202225,-411,373,393,-911,-1084,58,0.01383770608975631,-0.005535082435902524,0.008302623653853786,0.9998544630060235,256,-298,-110
202275,-446,328,407,-863,-1050,86,0.011070164871805049,0.011070164871805049,-0.001383770608975631,0.9998764864113586,-276,-652,-67
202325,-486,278,415,-834,-1042,81,0.006918853044878155,0.02629164157053699,-0.004151311826926893,0.9996217512970521,154,-387,-36
202375,-525,228,418,-791,-1031,51,0.011070164871805049,0.034594265224390776,-0.008302623653853786,0.9993056362813921,216,-315,18
202425,-562,179,418,-742,-1027,9,0.012453935480780678,0.044280659487220195,-0.011070164871805049,0.9988801600473044,-16,-376,1
202475,-596,129,416,-687,-1029,-31,0.011070164871805049,0.05535082435902524,-0.011070164871805049,0.9983442237736433,61,-315,41
202525,-628,78,412,-624,-1035,-62,0.01383770608975631,0.060885906794927766,-0.011070164871805049,0.9979874125927861,124,-153,75
202575,-656,27,406,-554,-1044,-81,0.01660524730770757,0.06503721862185466,-0.008302623653853786,0.9977101244330667,-29,-126,100
202625,-682,-24,400,-483,-1057,-84,0.012453935480780678,0.06780475983980593,-0.006918853044878155,0.9975968842707209,-312,-23,122
202675,-704,-76,395,-414,-1061,-82,0.002767541217951262,0.06918853044878155,-0.005535082435902524,0.9975844078735256,-586,15,151
202725,-723,-128,391,-343,-1055,-68,-0.011070164871805049,0.07057230105775718,-0.0,0.9974452374807974,-323,-746,227
202775,-738,-180,387,-255,-1039,-48,-0.015221476698731942,0.10655033689112359,0.005535082435902524,0.994175384536313,-94,-1795,208
202825,-724,-257,404,-72,-1080,12,-0.019372788525658834,0.13976083150653873,0.012453935480780678,0.9899174230875935,-678,-326,157
202875,-725,-310,406,68,-1050,17,-0.03874557705131767,0.13976083150653873,0.019372788525658834,0.9892372745202748,-859,55,110
202925,-720,-359,409,191,-985,24,-0.05950213618595213,0.14391214333346564,0.02629164157053699,0.9874500191776812,-649,-618,66
202975,-704,-402,410,343,-892,-4,-0.07472361288468407,0.15774984942322193,0.02767541217951262,0.9842588268565869,-494,-237,11
203025,-686,-443,411,476,-798,-24,-0.08717754836546475,0.1563660788142463,0.030442953397463883,0.9833732511339139,-300,335,-23
203075,-660,-479,411,612,-700,-44,-0.09132886019239164,0.14252837272448998,0.031826724006439516,0.9850541923688693,-26,697,-19
203125,-628,-513,404,732,-607,-84,-0.09132886019239164,0.12315558419883116,0.03321049461541514,0.9876177420561068,-25,870,-19
203175,-590,-541,394,837,-513,-119,-0.09271263080136728,0.09963148384624543,0.034594265224390776,0.9900914969486755,-104,1112,-34
203225,-547,-567,382,918,-429,-140,-0.09271263080136728,0.07057230105775718,0.034594265224390776,0.992586094616929,20,1232,-24
203275,-502,-589,375,957,-351,-114,-0.08856131897444039,0.0401293476602933,0.03597803583336641,0.9946115368199987,-265,901,-32
203327,-468,-600,384,908,-230,10,-0.1120854193270261,0.024907870961561357,0.03597803583336641,0.992734626008391,-1628,-541,-40
203375,-431,-609,384,913,-126,38,-0.14252837272448998,0.034594265224390776,0.03321049461541514,0.9886283239061547,-497,-285,-63
203427,-380,-613,388,924,47,59,-0.14529591394244126,0.03321049461541514,0.030442953397463883,0.9883619716619362,293,352,-35
203475,-349,-611,394,903,147,78,-0.14252837272448998,0.023524100352585727,0.030442953397463883,0.989042722160954,-201,96,-130
203525,-305,-602,399,904,284,88,-0.14391214333346564,0.019372788525658834,0.02905918278848825,0.9889739905384637,349,156,-144
203575,-263,-587,406,896,402,97,-0.12730689602575807,0.011070164871805049,0.02629164157053699,0.9914530524727453,931,580,-148
203625,-221,-568,414,880,496,106,-0.1023990250641967,-0.005535082435902524,0.023524100352585727,0.9944498072959396,744,529,-136
203675,-169,-535,424,863,598,117,-0.0802586953205866,-0.019372788525658834,0.023524100352585727,0.996308111777064,708,414,-191
203725,-139,-519,419,823,603,46,-0.060885906794927766,-0.02905918278848825,0.020756559134634464,0.9975057070023785,997,580,-170
203775,-101,-492,417,783,629,-1,-0.03597803583336641,-0.04289688887824456,0.017989017916683205,0.9982694190931293,637,431,-129
203825,-64,-465,407,735,628,-76,-0.020756559134634464,-0.05258328314107398,0.012453935480780678,0.9983231255851166,327,335,-77
203875,-30,-436,400,672,626,-105,-0.023524100352585727,-0.07195607166673282,0.009686394262829417,0.9970833035504498,-1509,1799,-127
203925,0,-405,404,564,660,-38,-0.060885906794927766,-0.11762050176292864,0.006918853044878155,0.9911662087618502,-911,1169,-113
203975,22,-371,409,421,727,11,-0.07057230105775718,-0.13699329028858748,0.005535082435902524,0.9880393471930902,315,58,-131
204026,40,-334,414,279,789,26,-0.06642098923083029,-0.13976083150653873,0.005535082435902524,0.9879395351076029,-262,461,-158
204075,44,-306,394,119,791,-98,-0.06780475983980593,-0.1563660788142463,-0.008302623653853786,0.9853340704450373,-254,435,-79
204126,44,-263,394,-58,864,-82,-0.07057230105775718,-0.16328493185912446,-0.006918853044878155,0.9840272917067482,315,-82,-76
204175,38,-222,391,-216,913,-81,-0.05950213618595213,-0.1605173906411732,-0.011070164871805049,0.9851756769940925,295,-260,0
204226,24,-178,385,-372,957,-99,-0.05258328314107398,-0.15221476698731942,-0.017989017916683205,0.986783693764492,113,-663,70
204275,1,-129,378,-522,1009,-89,-0.047048200705171454,-0.1342257490706362,-0.022140329743610097,0.9895856309060256,244,-990,78
204325,-24,-87,381,-636,1007,-30,-0.037361806442342035,-0.10655033689112359,-0.017989017916683205,0.9934422561790626,241,-1027,14
204375,-56,-40,381,-721,1017,3,-0.02767541217951262,-0.0802586953205866,-0.019372788525658834,0.9962014396952412,356,-1119,8
204425,-89,5,384,-766,1004,48,-0.01383770608975631,-0.04843197131414709,-0.015221476698731942,0.9986146247136125,443,-1112,-15
204475,-127,54,388,-796,1006,82,-0.002767541217951262,-0.022140329743610097,-0.015221476698731942,0.9996351600266775,432,-855,-56
204525,-163,99,392,-789,974,90,0.011070164871805049,-0.001383770608975631,-0.012453935480780678,0.9998602082889654,466,-731,-111
204575,-199,152,400,-760,980,109,0.022140329743610097,0.019372788525658834,-0.017989017916683205,0.9994052711978147,558,-705,-61
204625,-228,191,403,-685,899,93,0.0401293476602933,0.03874557705131767,-0.017989017916683205,0.998280927870363,574,-423,-108
204675,-255,237,411,-608,863,90,0.05119951253209835,0.04843197131414709,-0.022140329743610097,0.9972676470586747,208,-22,-57
204725,-282,279,416,-546,810,67,0.05673459496800087,0.05119951253209835,-0.023524100352585727,0.996798080030702,365,-81,-19
204775,-307,319,420,-493,759,40,0.06642098923083029,0.05258328314107398,-0.024907870961561357,0.9960937950252806,290,28,-41
204825,-328,357,424,-432,706,25,0.07057230105775718,0.05258328314107398,-0.02767541217951262,0.9957352159174713,127,163,10
204875,-348,392,425,-381,644,-7,0.07333984227570844,0.04843197131414709,-0.030442953397463883,0.9956650231267741,132,142,59
204925,-364,423,424,-332,582,-41,0.06642098923083029,0.034594265224390776,-0.030442953397463883,0.9967270015363396,-1988,2263,82
204975,-375,446,422,-301,525,-76,-0.004151311826926893,-0.03321049461541514,-0.030442953397463883,0.9989760038389085,-3294,3092,10
205025,-391,474,416,-358,565,-88,-0.06918853044878155,-0.09132886019239164,-0.02767541217951262,0.9930287297510534,-634,814,76
205075,-412,504,411,-453,641,-95,-0.07333984227570844,-0.09963148384624543,-0.02629164157053699,0.9919695481944473,86,-141,118
205125,-437,538,406,-547,716,-110,-0.08164246592956223,-0.09963148384624543,-0.023524100352585727,0.9913902823238369,-807,280,49
205175,-466,576,400,-647,808,-111,-0.09548017201931853,-0.1023990250641967,-0.024907870961561357,0.9898371453836361,226,-424,27
205225,-501,619,395,-743,904,-105,-0.08302623653853786,-0.08579377775648912,-0.023524100352585727,0.992568732354147,731,-1036,83
205275,-540,666,390,-819,985,-86,-0.06503721862185466,-0.060885906794927766,-0.022140329743610097,0.9957775215109732,762,-870,42
205325,-583,724,377,-875,1068,-85,-0.04566443009619582,-0.037361806442342035,-0.015221476698731942,0.9981418545930556,1154,-1089,-10
205375,-628,777,373,-901,1096,-51,-0.015221476698731942,-0.008302623653853786,-0.01383770608975631,0.999753915210011,1242,-1161,23
205425,-675,827,369,-901,1074,-22,0.01660524730770757,0.019372788525658834,-0.009686394262829417,0.9996274979174867,1077,-944,-3
205475,-709,882,379,-838,1033,49,0.04151311826926893,0.044280659487220195,-0.009686394262829417,0.9981092415027143,41,-1297,87
205525,-748,932,387,-764,980,87,0.023524100352585727,0.08579377775648912,-0.006918853044878155,0.9960111314003549,-1642,-1766,34
205575,-783,980,390,-654,965,85,-0.004151311826926893,0.12177181358985553,-0.004151311826926893,0.9925407591808352,165,-763,-101
205625,-812,1028,394,-527,964,78,0.011070164871805049,0.13284197846166057,-0.008302623653853786,0.9910406281523302,789,-79,-62
205675,-835,1076,408,-400,947,105,0.020756559134634464,0.1383770608975631,-0.012453935480780678,0.9900837609825156,-191,-543,-98
205725,-852,1123,413,-267,927,62,0.017989017916683205,0.15221476698731942,-0.01383770608975631,0.9880868270731893,317,-495,-139
205775,-857,1167,403,-100,895,-27,0.03321049461541514,0.1605173906411732,-0.020756559134634464,0.9862557455356288,778,154,-115
205825,-858,1211,401,47,854,-66,0.04566443009619582,0.15498230820527067,-0.02629164157053699,0.9865110204913489,157,358,-76
205875,-852,1252,397,194,804,-83,0.04843197131414709,0.14529591394244126,-0.02767541217951262,0.987814513513013,382,513,-35
205925,-841,1289,413,322,739,-7,0.06226967740390339,0.12730689602575807,-0.031826724006439516,0.9893950177453485,656,860,66
205975,-822,1325,412,440,666,-3,0.07333984227570844,0.10378279567317232,-0.03321049461541514,0.9913362002391692,64,1063,132
206025,-798,1356,412,531,589,0,0.07333984227570844,0.07749115410263534,-0.031826724006439516,0.9937823947976909,305,604,165
206075,-772,1394,397,600,546,-46,0.08856131897444039,0.08164246592956223,-0.02629164157053699,0.9923709740424566,1104,-1194,198
206125,-741,1419,396,683,446,-40,0.11346918993600175,0.10378279567317232,-0.020756559134634464,0.9878881715611432,514,-24,41
206175,-706,1439,397,772,327,-26,0.11900427237190427,0.09132886019239164,-0.022140329743610097,0.9884365575250829,-58,836,35
206225,-669,1452,400,831,211,13,0.116236731153953,0.07472361288468407,-0.020756559134634464,0.9901891583232942,-44,20,117
206275,-628,1460,403,888,97,40,0.11485296054497737,0.07195607166673282,-0.01660524730770757,0.9906338309214943,-260,269,60
206325,-587,1463,408,928,-2,65,0.10378279567317232,0.05950213618595213,-0.015221476698731942,0.9927018352751641,-498,542,79
206375,-543,1461,412,966,-93,74,0.08994508958341602,0.047048200705171454,-0.012453935480780678,0.9947568784186805,-483,296,95
206425,-501,1455,416,977,-158,93,0.07472361288468407,0.03874557705131767,-0.009686394262829417,0.9964042029731736,-594,180,81
206475,-449,1445,421,1008,-223,82,0.060885906794927766,0.031826724006439516,-0.006918853044878155,0.9976131993239267,-437,322,65
206525,-435,1429,407,962,-275,45,0.05119951253209835,0.020756559134634464,-0.005535082435902524,0.9984573791763941,-492,594,91
206575,-386,1416,408,967,-299,26,0.03597803583336641,0.005535082435902524,-0.002767541217951262,0.999333420093418,-658,357,105
206625,-340,1405,410,950,-294,31,0.034594265224390776,-0.009686394262829417,0.001383770608975631,0.9993535389233739,2307,1152,89
206675,-294,1391,412,921,-334,39,0.09686394262829418,-0.044280659487220195,0.006918853044878155,0.9942880514651792,2193,1638,184
206725,-249,1372,413,865,-445,14,0.13007443724370932,-0.0802586953205866,0.009686394262829417,0.9882030946963052,-624,731,195
206775,-211,1350,417,759,-536,17,0.10931787810907485,-0.09548017201931853,0.017989017916683205,0.9892469527429862,-257,36,88
206825,-176,1321,417,667,-644,5,0.11070164871805048,-0.09686394262829418,0.019372788525658834,0.9889323620219675,413,329,62
206875,-173,1273,402,478,-804,-48,0.116236731153953,-0.11070164871805048,0.01660524730770757,0.9868933240546309,-797,59,120
206925,-155,1238,394,363,-867,-96,0.08717754836546475,-0.10655033689112359,0.022140329743610097,0.9902307340050698,-1296,-863,22
206975,-139,1192,389,265,-946,-87,0.05950213618595213,-0.08579377775648912,0.022140329743610097,0.9942880514651792,-509,-657,3
207025,-130,1151,380,175,-964,-90,0.044280659487220195,-0.07472361288468407,0.023524100352585727,0.9959428806791272,-787,-103,18
207075,-123,1105,373,98,-984,-76,0.017989017916683205,-0.07195607166673282,0.024907870961561357,0.996934459705776,-1178,-568,-78
207125,-116,1060,374,34,-964,-34,-0.009686394262829417,-0.05396705375004961,0.01660524730770757,0.9983576496614698,-648,-887,-40
207175,-116,1014,371,-14,-936,-14,-0.020756559134634464,-0.044280659487220195,0.01660524730770757,0.9986654365752913,633,1482,-113
207225,-118,969,369,-77,-911,7,0.005535082435902524,-0.09132886019239164,0.019372788525658834,0.9956169430173065,1500,2224,-63
207275,-125,923,369,-193,-934,21,0.03321049461541514,-0.13284197846166057,0.020756559134634464,0.9903631844220996,-164,195,4
207325,-137,880,366,-321,-943,-6,0.020756559134634464,-0.13284197846166057,0.02629164157053699,0.9905710088604495,-394,-212,-54
207375,-155,833,365,-448,-958,-4,0.019372788525658834,-0.13145820785268494,0.02905918278848825,0.9907063129649298,823,290,-151
207425,-178,785,363,-570,-989,-14,0.037361806442342035,-0.13560951967961185,0.03321049461541514,0.9895004884481005,185,-370,-89
207475,-209,735,361,-693,-1032,-24,0.034594265224390776,-0.12177181358985553,0.031826724006439516,0.9914443614583927,-485,-902,-137
207525,-213,704,388,-707,-998,57,0.022140329743610097,-0.09409640141034291,0.024907870961561357,0.9950051612954729,105,-689,-75
207575,-250,655,394,-795,-1019,90,0.02767541217951262,-0.0802586953205866,0.01660524730770757,0.9962514136240818,211,-85,-40
207625,-285,604,399,-836,-1041,87,0.02905918278848825,-0.07472361288468407,0.015221476698731942,0.9966645635419347,-187,-438,-29
207675,-324,555,409,-863,-1031,109,0.020756559134634464,-0.05396705375004961,0.005535082435902524,0.9983116172943484,-407,-943,-29
207725,-363,503,412,-877,-1048,79,0.011070164871805049,-0.031826724006439516,0.004151311826926893,0.9994234726575341,-62,-230,-46
207775,-402,452,416,-872,-1043,62,0.01383770608975631,-0.02767541217951262,-0.0,0.9995211800911813,319,-85,-104
207825,-442,400,417,-869,-1059,24,0.017989017916683205,-0.017989017916683205,-0.001383770608975631,0.9996753851364393,-233,-616,0
207875,-482,348,420,-856,-1066,9,0.011070164871805049,-0.001383770608975631,-0.002767541217951262,0.9999339364899162,-124,-574,-63
207925,-525,294,420,-852,-1076,-5,0.011070164871805049,0.012453935480780678,-0.004151311826926893,0.9998525479043734,115,-534,-70
207975,-563,244,423,-814,-1069,-2,0.009686394262829417,0.02629164157053699,-0.005535082435902524,0.9995920598985064,-170,-436,-42
208025,-598,189,423,-755,-1081,-15,0.006918853044878155,0.0401293476602933,-0.006918853044878155,0.9991465830404697,-38,-538,-33
208075,-632,136,422,-695,-1082,-31,0.006918853044878155,0.05258328314107398,-0.009686394262829417,0.9985455931367551,41,-255,14
208125,-665,82,420,-638,-1086,-38,0.006918853044878155,0.0581183655769765,-0.011070164871805049,0.9982243417713852,-71,-123,28
208175,-693,29,417,-570,-1080,-55,0.002767541217951262,0.06226967740390339,-0.011070164871805049,0.9979941279593442,-234,-140,75
208225,-719,-25,413,-498,-1089,-72,-0.004151311826926893,0.06642098923083029,-0.006918853044878155,0.9977590632373413,-488,-77,74
208275,-740,-78,410,-420,-1068,-63,-0.019372788525658834,0.06918853044878155,-0.005535082435902524,0.9974001229103122,-446,-472,101
208325,-763,-135,406,-354,-1059,-62,-0.022140329743610097,0.0982477132372698,-0.004151311826926893,0.9949070103545391,-41,-1861,175
208375,-778,-187,402,-240,-1036,-69,-0.02905918278848825,0.1342257490706362,0.001383770608975631,0.990523648057427,-725,-484,157
208425,-785,-240,400,-96,-1007,-66,-0.04566443009619582,0.1383770608975631,0.006918853044878155,0.9893021168045104,-474,-31,151
208475,-786,-291,397,50,-952,-62,-0.05396705375004961,0.14529591394244126,0.012453935480780678,0.9878368053439852,-472,-504,136
208525,-782,-335,394,193,-878,-56,-0.06780475983980593,0.15359853759629505,0.01660524730770757,0.9856643797729507,-587,-235,90
208575,-770,-375,391,340,-789,-62,-0.07887492471161096,0.1563660788142463,0.019372788525658834,0.9843541490300809,-175,-24,51
208625,-755,-405,388,456,-708,-65,-0.08164246592956223,0.1563660788142463,0.022140329743610097,0.9840701006290362,-56,46,41
208675,-729,-438,385,609,-610,-62,-0.08579377775648912,0.15083099637834377,0.023524100352585727,0.9845486554418668,-150,681,24
208725,-691,-469,381,770,-506,-51,-0.08717754836546475,0.1286906666347337,0.02629164157053699,0.9874955883271688,150,1105,-4
208775,-649,-492,379,891,-414,-31,-0.0802586953205866,0.09963148384624543,0.02767541217951262,0.9913960766579252,234,1222,15
208825,-592,-503,372,1014,-311,-43,-0.07749115410263534,0.07195607166673282,0.02767541217951262,0.9940078049727918,73,1344,57
208875,-555,-510,371,993,-202,-1,-0.08717754836546475,0.03597803583336641,0.030442953397463883,0.9950773249285705,-1360,685,54
208925,-510,-519,376,983,-107,61,-0.1259231254167824,0.024907870961561357,0.031826724006439516,0.9912164365507916,-1413,-264,85
208975,-464,-522,389,974,36,155,-0.14391214333346564,0.02629164157053699,0.034594265224390776,0.9886360712609463,329,-39,27
209026,-421,-521,402,954,146,193,-0.13007443724370932,0.020756559134634464,0.03597803583336641,0.9906338309214943,316,289,-16
209075,-375,-514,405,960,251,140,-0.12453935480780678,0.01383770608975631,0.03321049461541514,0.991562166503759,-13,274,-79
209125,-330,-504,412,944,336,117,-0.11900427237190427,0.005535082435902524,0.030442953397463883,0.9924114935892778,538,261,-96
209175,-283,-485,421,940,441,110,-0.10101525445522107,-0.004151311826926893,0.02905918278848825,0.9944517328021143,844,635,-171
209225,-237,-461,429,924,526,100,-0.07887492471161096,-0.020756559134634464,0.02767541217951262,0.9962840875299185,778,670,-190
209275,-191,-433,435,898,588,84,-0.0581183655769765,-0.03597803583336641,0.02629164157053699,0.9973146876005389,804,485,-232
209325,-162,-424,417,805,545,-49,-0.03321049461541514,-0.05119951253209835,0.020756559134634464,0.9979202564417486,853,520,-187
209375,-125,-402,399,752,536,-152,-0.015221476698731942,-0.06226967740390339,0.011070164871805049,0.9978818794691258,238,192,-145
209426,-89,-376,389,689,542,-176,-0.020756559134634464,-0.07195607166673282,0.006918853044878155,0.9971677985553514,-1513,1278,-130
209475,-56,-350,379,599,573,-166,-0.06365344801287903,-0.1120854193270261,-0.001383770608975631,0.9916567866501284,-1515,1582,-157
209525,-30,-319,372,462,657,-131,-0.08302623653853786,-0.1383770608975631,-0.005535082435902524,0.9868778019218117,267,73,-115
209575,-10,-284,366,312,746,-96,-0.07610738349365971,-0.13699329028858748,-0.006918853044878155,0.9876196808823725,-118,183,-104
209625,-8,-248,402,100,816,100,-0.0802586953205866,-0.14944722576936814,-0.006918853044878155,0.9854827233431442,-128,557,-135
209675,-7,-204,407,-67,903,117,-0.07610738349365971,-0.15913362003219755,-0.008302623653853786,0.9842841173125063,610,81,-75
209725,-13,-162,421,-219,951,129,-0.0581183655769765,-0.15913362003219755,-0.004151311826926893,0.985536155180633,424,-87,-81
209775,-26,-116,428,-355,987,89,-0.05119951253209835,-0.15359853759629505,-0.002767541217951262,0.9868021280278848,91,-400,-137
209825,-41,-74,429,-451,982,26,-0.04566443009619582,-0.1342257490706362,0.001383770608975631,0.9898971124765028,363,-912,-138
209875,-93,-61,399,-626,899,-111,-0.02905918278848825,-0.11762050176292864,-0.002767541217951262,0.9926294989452555,230,-806,-87
209925,-125,-17,392,-715,911,-140,-0.02905918278848825,-0.08994508958341602,-0.004151311826926893,0.9955140437812077,-426,-1427,-68
209975,-154,18,387,-769,933,-129,-0.034594265224390776,-0.05950213618595213,-0.008302623653853786,0.9975940051159867,242,-1457,-76
210025,-197,71,383,-792,943,-63,-0.019372788525658834,-0.017989017916683205,-0.01383770608975631,0.999554704950813,575,-1006,-34
210075,-237,119,381,-799,962,-7,-0.008302623653853786,0.002767541217951262,-0.017989017916683205,0.9997998811714586,302,-835,-43
210125,-263,152,384,-755,934,38,0.002767541217951262,0.023524100352585727,-0.022140329743610097,0.9994742433985243,525,-968,-12
210175,-304,206,390,-690,914,93,0.017989017916683205,0.04843197131414709,-0.02629164157053699,0.9983183304800856,378,-409,-25
210225,-337,251,395,-639,891,105,0.02629164157053699,0.05396705375004961,-0.02629164157053699,0.997850217355587,295,-203,-31
210275,-361,287,403,-545,811,114,0.0401293476602933,0.06365344801287903,-0.02767541217951262,0.9967807911337001,562,-379,1
210325,-383,321,407,-501,781,100,0.05119951253209835,0.06780475983980593,-0.02767541217951262,0.995999596395619,202,132,-16
210375,-407,359,412,-439,729,76,0.05396705375004961,0.06226967740390339,-0.02767541217951262,0.9962148944611535,12,226,-6
210425,-425,397,419,-369,690,66,0.05535082435902524,0.05950213618595213,-0.031826724006439516,0.9961841404434738,284,-4,77
210475,-442,430,421,-314,637,25,0.060885906794927766,0.05673459496800087,-0.030442953397463883,0.9960659208486234,-755,1434,133
210525,-447,450,422,-238,541,-26,0.022140329743610097,0.002767541217951262,-0.02767541217951262,0.999367909268226,-3262,3861,29
210575,-459,477,420,-270,554,-55,-0.05535082435902524,-0.08302623653853786,-0.02767541217951262,0.9946240505083904,-1566,1890,107
210625,-475,506,416,-364,624,-75,-0.07887492471161096,-0.10931787810907485,-0.024907870961561357,0.9905594105058159,241,-376,153
210675,-496,540,412,-464,701,-97,-0.07749115410263534,-0.1023990250641967,-0.022140329743610097,0.9914733312099665,-491,240,79
210725,-523,582,402,-570,806,-135,-0.09271263080136728,-0.10931787810907485,-0.019372788525658834,0.9894840396289163,-181,134,-36
210775,-554,624,395,-679,903,-135,-0.08856131897444039,-0.10516656628214796,-0.019372788525658834,0.9903138801322892,752,-993,-5
210825,-591,672,389,-778,992,-108,-0.07195607166673282,-0.07749115410263534,-0.015221476698731942,0.9942764964702945,520,-1047,-22
210875,-632,725,385,-850,1066,-68,-0.05673459496800087,-0.05258328314107398,-0.01660524730770757,0.9968653117797671,872,-940,-12
210925,-676,773,379,-887,1085,-40,-0.030442953397463883,-0.02629164157053699,-0.015221476698731942,0.999074713331829,1169,-1313,2
210975,-722,822,377,-900,1076,2,-0.0,0.005535082435902524,-0.012453935480780678,0.9999071268640244,754,-1141,-61
211025,-764,874,383,-870,1051,65,0.017989017916683205,0.031826724006439516,-0.015221476698731942,0.9992155730974779,254,-1159,-23
211075,-804,923,386,-808,1005,78,0.01660524730770757,0.06918853044878155,-0.015221476698731942,0.9973492465848149,-1181,-1958,-26
211125,-842,971,390,-711,988,82,-0.011070164871805049,0.11485296054497737,-0.015221476698731942,0.99320418623306,-550,-968,-101
211175,-874,1020,394,-582,991,78,-0.015221476698731942,0.13145820785268494,-0.017989017916683205,0.9910415942177521,553,-228,-121
211225,-899,1068,398,-447,990,62,-0.002767541217951262,0.13976083150653873,-0.023524100352585727,0.9899019483740849,136,-554,-30
211275,-917,1116,401,-301,978,40,-0.001383770608975631,0.15359853759629505,-0.02767541217951262,0.9877447271374702,165,-435,-26
211325,-928,1164,403,-147,968,19,0.008302623653853786,0.1605173906411732,-0.030442953397463883,0.986528489365944,743,-102,-5
211375,-931,1211,404,9,942,-3,0.02629164157053699,0.16190116125014883,-0.03597803583336641,0.9858003573274625,615,-24,11
211425,-927,1257,404,165,901,-25,0.0401293476602933,0.1605173906411732,-0.03874557705131767,0.9854555205675539,500,371,27
211475,-916,1300,403,311,848,-35,0.05258328314107398,0.1466796845514169,-0.04151311826926893,0.986912726377345,604,913,58
211525,-879,1346,418,487,793,13,0.06642098923083029,0.12315558419883116,-0.044280659487220195,0.9891714600945679,455,887,122
