Timestamp,stateEstimateZ.x,stateEstimateZ.y,stateEstimateZ.z,stateEstimateZ.vx,stateEstimateZ.vy,stateEstimateZ.vz,stateEstimateZ.qw,stateEstimateZ.qx,stateEstimateZ.qy,stateEstimateZ.qz,stateEstimateZ.rateRoll,stateEstimateZ.ratePitch,stateEstimateZ.rateYaw
704094,8,13,429,-44,12,62,-0.004151311826926893,-0.01383770608975631,0.030442953397463883,0.9994320942859144,108,-55,79
704140,6,14,430,-54,14,47,0.0,-0.011070164871805049,0.030442953397463883,0.9994752013122441,305,-200,72
704190,3,14,433,-64,8,56,0.006918853044878155,-0.006918853044878155,0.034594265224390776,0.9993535389233739,144,-156,63
704244,0,14,438,-71,-2,84,0.008302623653853786,-0.004151311826926893,0.04151311826926893,0.9990948373713777,-99,-33,69
704291,-2,14,441,-71,-8,83,0.006918853044878155,-0.002767541217951262,0.04289688887824456,0.9990517139331266,48,-80,43
704343,-6,13,447,-75,-19,113,0.009686394262829417,0.0,0.04843197131414709,0.9987795141675717,134,-160,18
704390,-9,11,454,-67,-31,125,0.012453935480780678,0.004151311826926893,0.05396705375004961,0.9984564202861813,-64,-25,13
704441,-13,9,461,-63,-44,128,0.008302623653853786,0.001383770608975631,0.060885906794927766,0.9981092415027143,-207,89,8
704491,-15,7,466,-61,-48,123,0.005535082435902524,0.001383770608975631,0.06365344801287903,0.9979557538274937,6,-125,3
704541,-18,5,471,-58,-52,105,0.005535082435902524,0.005535082435902524,0.06365344801287903,0.9979413631476186,2,-145,-26
704590,-17,4,469,-30,-49,39,0.002767541217951262,0.009686394262829417,0.05535082435902524,0.9984161460656414,-153,59,-15
704640,-20,2,473,-30,-47,33,-0.001383770608975631,0.005535082435902524,0.0581183655769765,0.9982933955626424,-132,147,18
704695,-20,0,471,-18,-38,1,-0.002767541217951262,0.004151311826926893,0.060885906794927766,0.9981322626182774,95,-123,17
704741,-21,0,472,-16,-37,0,0.0,0.006918853044878155,0.06365344801287903,0.9979480788240513,98,-157,-24
704790,-21,-2,471,-2,-35,-17,0.001383770608975631,0.009686394262829417,0.05535082435902524,0.9984190228495564,-72,30,13
704842,-21,-4,468,7,-35,-25,-0.0,0.008302623653853786,0.05119951253209835,0.9986539322292473,97,88,25
704893,-22,-5,473,3,-34,18,0.002767541217951262,0.006918853044878155,0.049815741923122714,0.9987306253664194,216,-116,50
704943,-21,-7,473,13,-37,19,0.006918853044878155,0.009686394262829417,0.047048200705171454,0.9988216908183033,34,-56,41
704993,-21,-9,477,19,-47,32,0.006918853044878155,0.009686394262829417,0.05119951253209835,0.9986175009257569,-138,145,46
705040,-20,-12,478,26,-50,25,0.004151311826926893,0.005535082435902524,0.05258328314107398,0.998592573478618,22,121,48
705091,-18,-14,478,33,-55,2,0.005535082435902524,0.004151311826926893,0.05119951253209835,0.9986644778848494,19,35,47
705143,-18,-18,482,28,-62,19,0.004151311826926893,0.001383770608975631,0.0581183655769765,0.9983001088709137,-227,97,39
705191,-16,-20,482,31,-61,6,-0.001383770608975631,-0.001383770608975631,0.06226967740390339,0.9980574420512164,-154,66,29
705243,-15,-23,483,27,-58,12,-0.004151311826926893,-0.001383770608975631,0.06503721862185466,0.9978732444468839,83,-27,16
705292,-12,-25,478,35,-52,-28,-0.001383770608975631,0.0,0.060885906794927766,0.99814377297695,33,-28,15
705342,-11,-27,476,33,-48,-33,-0.002767541217951262,-0.0,0.05950213618595213,0.9982243417713852,-206,170,0
705394,-10,-30,475,26,-42,-19,-0.008302623653853786,-0.005535082435902524,0.06226967740390339,0.9980094771989413,-150,57,1
705440,-9,-32,475,16,-32,-8,-0.011070164871805049,-0.005535082435902524,0.06226967740390339,0.9979826158747219,23,-60,-11
705490,-8,-33,471,16,-23,-25,-0.009686394262829417,-0.004151311826926893,0.0581183655769765,0.9982540738504209,-20,-9,-20
705541,-6,-34,467,14,-14,-34,-0.011070164871805049,-0.005535082435902524,0.05535082435902524,0.9983902546373914,-88,128,6
705592,-8,-34,471,-5,-3,9,-0.012453935480780678,-0.008302623653853786,0.0581183655769765,0.9981974862291348,73,3,-11
705640,-9,-34,473,-18,10,23,-0.009686394262829417,-0.006918853044878155,0.05950213618595213,0.998157201560975,155,-200,-39
705690,-10,-33,476,-26,15,36,-0.006918853044878155,-0.002767541217951262,0.06226967740390339,0.9980315413172892,-11,-61,-50
705743,-11,-33,476,-24,21,24,-0.008302623653853786,-0.002767541217951262,0.06365344801287903,0.9979336880334991,-57,111,-38
705790,-11,-31,474,-20,28,-3,-0.006918853044878155,-0.004151311826926893,0.06503721862185466,0.997850217355587,236,-77,-42
705843,-11,-30,469,-15,32,-40,0.001383770608975631,0.001383770608975631,0.060885906794927766,0.9981428137854637,256,-237,-69
705891,-14,-28,471,-21,27,-21,0.004151311826926893,0.005535082435902524,0.06365344801287903,0.9979480788240513,-134,3,-58
705942,-13,-27,468,-10,27,-35,0.001383770608975631,0.002767541217951262,0.06503721862185466,0.9978780416906876,-71,124,-36
705990,-14,-25,467,-7,28,-22,0.001383770608975631,0.001383770608975631,0.06503721862185466,0.9978809200259,249,-113,-78
706042,-13,-24,464,0,25,-26,0.006918853044878155,0.005535082435902524,0.06226967740390339,0.9980200296642272,35,-116,-82
706090,-14,-23,466,0,18,0,0.006918853044878155,0.006918853044878155,0.06226967740390339,0.9980113958372923,-258,206,-84
706140,-12,-22,462,17,15,-30,0.0,0.001383770608975631,0.047048200705171454,0.9988916617878576,-73,198,-33
706190,-11,-21,460,16,14,-29,0.002767541217951262,-0.001383770608975631,0.044280659487220195,0.9990143387809234,259,-33,6
706243,-14,-20,467,-3,11,29,0.006918853044878155,-0.001383770608975631,0.047048200705171454,0.998867699678917,-12,-8,2
706290,-13,-19,467,2,7,31,0.004151311826926893,-0.001383770608975631,0.04566443009619582,0.9989472516669772,-225,28,-11
706340,-12,-19,468,3,5,29,-0.0,-0.0,0.044280659487220195,0.9990191305452448,6,-55,13
706391,-12,-19,469,3,5,33,0.004151311826926893,0.0,0.044280659487220195,0.9990105053529179,300,-22,20
706440,-12,-18,471,4,0,32,0.008302623653853786,0.001383770608975631,0.04566443009619582,0.998921374004658,26,40,13
706490,-12,-19,472,5,-8,19,0.005535082435902524,-0.001383770608975631,0.04566443009619582,0.9989405427077825,-373,90,27
706540,-12,-19,473,3,-9,11,-0.002767541217951262,-0.002767541217951262,0.047048200705171454,0.9988849524552964,-20,-23,24
706591,-16,-20,485,-17,-9,48,0.001383770608975631,-0.001383770608975631,0.05258328314107398,0.9986146247136125,297,-136,17
706640,-17,-21,487,-17,-14,49,0.006918853044878155,0.001383770608975631,0.05950213618595213,0.9982032410490128,-42,-48,-19
706690,-18,-21,490,-15,-19,41,0.001383770608975631,0.001383770608975631,0.05950213618595213,0.9982262599967564,-285,44,-22
706740,-18,-21,489,-10,-13,14,-0.002767541217951262,0.001383770608975631,0.060885906794927766,0.9981399362054741,14,-133,-35
706790,-14,-20,479,13,-4,-67,-0.0,0.006918853044878155,0.05673459496800087,0.9983653215163076,262,-86,-52
706841,-13,-20,473,24,-6,-91,0.002767541217951262,0.006918853044878155,0.04566443009619582,0.9989290415300478,-54,317,-6
706890,-12,-21,467,27,-10,-95,-0.0,-0.002767541217951262,0.0401293476602933,0.9991906605708273,-257,230,25
706940,-11,-22,465,19,-9,-81,-0.004151311826926893,-0.004151311826926893,0.03874557705131767,0.9992318617213882,70,-222,26
706990,-11,-22,463,10,-5,-40,-0.001383770608975631,0.001383770608975631,0.03321049461541514,0.9994464635012738,178,-111,24
707046,-11,-22,464,8,-5,-16,0.0,0.0,0.034594265224390776,0.9994014392693181,-169,337,61
707090,-16,-18,467,-19,11,36,-0.004151311826926893,-0.008302623653853786,0.03597803583336641,0.9993094685772527,-67,110,84
707146,-17,-17,471,-31,16,64,-0.004151311826926893,-0.006918853044878155,0.0401293476602933,0.9991619145759202,279,-447,9
707197,-19,-16,477,-34,15,80,0.002767541217951262,0.004151311826926893,0.04289688887824456,0.9990670469244245,128,-103,-8
707241,-21,-17,483,-31,5,82,0.005535082435902524,0.001383770608975631,0.05119951253209835,0.9986721473826158,-110,374,17
707291,-22,-16,483,-22,3,39,0.002767541217951262,-0.004151311826926893,0.05396705375004961,0.9985302521382423,50,13,-5
707340,-22,-16,481,-21,0,2,0.006918853044878155,0.001383770608975631,0.05535082435902524,0.9984420368224795,254,-407,-44
707391,-23,-16,479,-14,-8,-13,0.009686394262829417,0.009686394262829417,0.05535082435902524,0.9983729933121921,-55,-48,-90
707440,-23,-17,477,-4,-15,-34,0.006918853044878155,0.006918853044878155,0.05258328314107398,0.9985686041926175,-179,325,-67
707490,-22,-17,471,9,-18,-58,0.004151311826926893,0.001383770608975631,0.047048200705171454,0.9988830354948588,137,-28,-68
707545,-21,-18,466,15,-26,-58,0.011070164871805049,0.005535082435902524,0.037361806442342035,0.9992251546731116,220,67,-588
707591,-19,-19,463,24,-34,-52,0.012453935480780678,-0.0,0.019372788525658834,0.9997347621023192,-411,807,-551
707641,-19,-21,465,7,-39,12,-0.001383770608975631,-0.024907870961561357,0.004151311826926893,0.999680173732169,-113,485,-1282
707696,-17,-24,472,-15,-33,48,-0.023524100352585727,-0.05396705375004961,-0.022140329743610097,0.9980200296642272,-1741,1920,-1398
707754,-13,-23,475,-42,22,35,-0.06780475983980593,-0.0982477132372698,-0.05673459496800087,0.9912270613338451,-1968,1962,-927
707790,-15,-24,476,-112,80,9,-0.10516656628214796,-0.13145820785268494,-0.07610738349365971,0.9827850218141971,-1023,619,-351
707840,-20,-18,472,-197,172,-93,-0.13007443724370932,-0.13976083150653873,-0.06642098923083029,0.9793547891045058,-2255,1806,1412
707890,-30,-9,466,-292,276,-192,-0.16743624368605134,-0.16190116125014883,-0.04566443009619582,0.9714256935608344,-1145,1495,1026
707941,-49,8,452,-430,425,-323,-0.17158755551297825,-0.1743550967309295,-0.022140329743610097,0.9693646459593382,4729,-3956,322
707994,-54,29,433,-459,518,-368,-0.008302623653853786,-0.01383770608975631,-0.011070164871805049,0.9998084995539631,6574,-7618,106
708040,-65,40,421,-382,434,-401,0.12038804298087989,0.13976083150653873,-0.004151311826926893,0.9828308072572565,3115,-4403,82
708091,-81,60,397,-216,296,-497,0.16328493185912446,0.20064673830146648,-0.001383770608975631,0.9659591102192916,-1843,2788,-62
708144,-79,54,379,19,30,-460,0.09963148384624543,0.09409640141034291,-0.004151311826926893,0.990556510895938,-3222,5260,609
708194,-79,46,367,58,-85,-363,0.044280659487220195,-0.001383770608975631,0.009686394262829417,0.9989712118677212,-1074,748,779
708243,-78,39,351,31,-131,-272,0.02767541217951262,0.004151311826926893,0.030442953397463883,0.9991446665819967,982,-3270,111
708290,-77,30,339,73,-180,-192,0.05396705375004961,0.08717754836546475,0.03321049461541514,0.994175384536313,874,-1833,66
708346,-72,22,332,167,-234,-143,0.06226967740390339,0.09409640141034291,0.03321049461541514,0.993058617386223,-1051,2913,80
708390,-65,6,336,217,-306,4,0.031826724006439516,0.008302623653853786,0.037361806442342035,0.9987603423739078,-1849,2904,364
708443,-75,10,334,88,-224,88,-0.017989017916683205,-0.0401293476602933,0.044280659487220195,0.9980507271106662,-1058,-976,263
708491,-72,1,340,51,-202,158,-0.031826724006439516,-0.005535082435902524,0.03597803583336641,0.998830317641099,404,-2364,-2
708544,-70,-8,352,68,-166,242,-0.019372788525658834,0.037361806442342035,0.02905918278848825,0.9986913208693516,420,740,21
708590,-67,-15,365,93,-149,293,-0.01383770608975631,0.008302623653853786,0.031826724006439516,0.9993631191762351,-385,2322,239
708643,-79,-1,374,-11,-35,318,-0.030442953397463883,-0.04566443009619582,0.04289688887824456,0.9975709715789635,-225,-384,244
708691,-85,-1,392,-73,4,337,-0.030442953397463883,-0.008302623653853786,0.04566443009619582,0.9984583380656861,535,-2667,31
708741,-89,0,406,-70,34,338,-0.022140329743610097,0.04151311826926893,0.04289688887824456,0.997971103657302,304,-731,-73
708791,-91,3,422,-23,63,314,-0.015221476698731942,0.03321049461541514,0.04151311826926893,0.9984698446653615,220,2024,103
708840,-93,7,434,-18,79,288,-0.006918853044878155,-0.008302623653853786,0.049815741923122714,0.9986999488182898,726,885,236
708898,-95,11,450,-39,78,274,0.01383770608975631,-0.006918853044878155,0.05950213618595213,0.9981082822780429,475,-2186,-15
708940,-97,15,461,-18,59,213,0.015221476698731942,0.05119951253209835,0.05535082435902524,0.997037212347845,-560,-1240,-105
708994,-96,17,469,31,51,178,-0.0,0.05396705375004961,0.05535082435902524,0.9970074439803925,-286,1635,-8
709042,-94,20,479,63,54,158,0.008302623653853786,0.008302623653853786,0.0581183655769765,0.9982406465695464,1200,1291,166
709094,-91,22,482,64,26,99,0.044280659487220195,0.0,0.0581183655769765,0.99732716737189,942,-1150,23
709140,-89,22,489,65,-17,80,0.04843197131414709,0.030442953397463883,0.06503721862185466,0.996241803447837,-1131,-1027,-56
709191,-84,20,492,105,-46,42,0.008302623653853786,0.034594265224390776,0.06365344801287903,0.9973377270564464,-1253,910,-21
709244,-78,18,491,133,-43,4,-0.001383770608975631,0.008302623653853786,0.0581183655769765,0.998274214433101,1242,999,111
709295,-73,16,497,118,-53,19,0.04151311826926893,-0.004151311826926893,0.06642098923083029,0.9969190939144837,1251,-503,40
709340,-68,13,497,120,-92,-4,0.05258328314107398,0.008302623653853786,0.06780475983980593,0.9962773606369033,-1301,-439,-42
709390,-62,6,499,128,-132,-5,0.005535082435902524,0.006918853044878155,0.07333984227570844,0.9972676470586747,-1832,643,14
709440,-56,1,498,128,-126,-5,-0.017989017916683205,-0.009686394262829417,0.07333984227570844,0.997097706614328,835,414,51
709491,-47,-4,490,133,-116,-59,0.01660524730770757,-0.009686394262829417,0.06503721862185466,0.9976976494519609,1589,-411,2
709540,-39,-11,486,132,-150,-73,0.037361806442342035,0.0,0.06365344801287903,0.9972724472156226,-1208,121,-13
709590,-33,-18,483,132,-170,-78,-0.002767541217951262,-0.011070164871805049,0.0581183655769765,0.99824448295394,-2040,725,97
709640,-27,-27,479,107,-148,-62,-0.03597803583336641,-0.02905918278848825,0.0581183655769765,0.997237885569887,826,-37,91
709690,-30,-26,482,38,-95,0,-0.002767541217951262,-0.019372788525658834,0.06503721862185466,0.9976909320898332,1632,-714,34
709740,-30,-32,487,18,-109,28,0.01660524730770757,-0.006918853044878155,0.07472361288468407,0.9970420136141973,-912,128,-11
709796,-29,-37,488,11,-114,28,-0.015221476698731942,-0.01660524730770757,0.0802586953205866,0.996519500177692,-1425,370,46
709841,-28,-41,487,-9,-74,9,-0.04289688887824456,-0.023524100352585727,0.08717754836546475,0.9949907279407965,896,-680,-4
709895,-26,-43,481,-6,-37,-41,-0.006918853044878155,0.005535082435902524,0.0844100071475135,0.9963917116417257,1500,-850,-84
709940,-25,-44,476,13,-38,-77,0.012453935480780678,0.019372788525658834,0.07749115410263534,0.9967270015363396,-633,482,-35
709997,-24,-46,473,24,-43,-66,-0.015221476698731942,-0.002767541217951262,0.07887492471161096,0.9967644624556268,-1127,798,78
710040,-24,-48,471,7,-21,-44,-0.031826724006439516,-0.01660524730770757,0.07887492471161096,0.9962379593513818,824,-610,39
710095,-24,-49,471,-6,0,-15,-0.001383770608975631,0.011070164871805049,0.08164246592956223,0.9965992396071517,1216,-1027,-74
710140,-24,-49,471,14,-9,-3,0.01383770608975631,0.02629164157053699,0.0802586953205866,0.9963311745093281,-685,574,-49
710190,-21,-50,467,45,-14,-25,-0.006918853044878155,0.004151311826926893,0.0802586953205866,0.9967414097488356,-1029,1066,67
710246,-19,-50,465,37,4,-31,-0.019372788525658834,-0.01383770608975631,0.07887492471161096,0.9966002002842721,1083,-833,18
710291,-18,-49,466,26,12,2,0.011070164871805049,0.015221476698731942,0.08164246592956223,0.9964839516288063,988,-1021,-78
710340,-16,-49,466,46,0,0,0.019372788525658834,0.02767541217951262,0.07887492471161096,0.9963119556028482,-821,751,-50
710395,-13,-50,466,65,-13,0,-0.004151311826926893,-0.001383770608975631,0.07887492471161096,0.9968749159452027,-645,1090,102
710440,-10,-50,466,46,-2,7,-0.006918853044878155,-0.017989017916683205,0.07749115410263534,0.9968067243667542,859,-599,51
710497,-9,-50,467,35,-3,19,0.012453935480780678,0.005535082435902524,0.07749115410263534,0.9968998863423096,426,-902,-101
710541,-7,-51,470,54,-22,25,0.01383770608975631,0.020756559134634464,0.07887492471161096,0.9965723402717946,-978,789,-57
710591,-4,-51,471,62,-21,25,-0.009686394262829417,-0.011070164871805049,0.07887492471161096,0.9967759886090926,-538,1167,79
710640,-3,-52,474,33,-7,51,-0.006918853044878155,-0.023524100352585727,0.08302623653853786,0.9962456475294593,959,-649,6
710695,-1,-52,474,22,-7,39,0.01383770608975631,0.002767541217951262,0.08302623653853786,0.9964474409882476,255,-1009,-106
710745,0,-52,477,33,-22,30,0.009686394262829417,0.019372788525658834,0.08164246592956223,0.9964263026375134,-1125,873,-50
710795,3,-53,473,53,-17,-16,-0.01383770608975631,-0.011070164871805049,0.07887492471161096,0.9967270015363396,-161,995,77
710845,4,-53,472,31,-2,-23,-0.008302623653853786,-0.023524100352585727,0.07749115410263534,0.9966808938566574,1165,-829,-17
710890,4,-52,470,12,-1,-30,0.015221476698731942,0.002767541217951262,0.07195607166673282,0.9972878075625957,223,-1028,-79
710946,5,-53,468,25,-15,-30,0.004151311826926893,0.01383770608975631,0.07057230105775718,0.9974020427208391,-1209,974,-17
710995,6,-52,467,28,-5,-20,-0.01660524730770757,-0.011070164871805049,0.06365344801287903,0.9977724969990066,89,922,105
711045,4,-52,474,-17,15,44,-0.005535082435902524,-0.024907870961561357,0.07472361288468407,0.9968777971767903,1311,-1032,10
711093,4,-51,473,-24,9,23,0.017989017916683205,0.001383770608975631,0.07333984227570844,0.9971437950206927,-51,-977,-96
711140,2,-51,477,-15,-10,33,0.006918853044878155,0.01660524730770757,0.07610738349365971,0.9969373407652771,-1270,691,-50
711197,2,-51,476,0,-2,7,-0.01660524730770757,-0.006918853044878155,0.07472361288468407,0.9970420136141973,393,646,78
711243,1,-50,477,-22,16,7,0.001383770608975631,-0.01383770608975631,0.0802586953205866,0.9966770514537358,1391,-889,-3
711294,2,-49,471,-11,7,-41,0.023524100352585727,0.011070164871805049,0.07333984227570844,0.996968071548576,-243,-708,-100
711341,0,-49,474,-1,-12,-9,0.008302623653853786,0.019372788525658834,0.07749115410263534,0.99677022554902,-1410,873,-36
711396,0,-49,475,4,0,-1,-0.01660524730770757,-0.011070164871805049,0.08164246592956223,0.9964618532430136,471,552,45
711440,1,-49,471,-3,9,-23,0.005535082435902524,-0.009686394262829417,0.07610738349365971,0.997037212347845,1461,-958,-37
711490,2,-49,468,5,-8,-39,0.02767541217951262,0.019372788525658834,0.07333984227570844,0.9967346859422563,-277,-583,-112
711545,3,-50,465,31,-28,-37,-0.0,0.011070164871805049,0.07195607166673282,0.9973463667151964,-1366,1128,-15
711602,0,-48,471,-2,-4,31,-0.015221476698731942,-0.019372788525658834,0.07610738349365971,0.9967951985686925,818,248,42
711640,0,-48,472,-16,3,39,0.001383770608975631,-0.017989017916683205,0.07057230105775718,0.9973434868372623,1394,-975,-14
711694,0,-48,472,-15,-10,26,0.024907870961561357,0.011070164871805049,0.06642098923083029,0.9974193208492962,-604,-434,-103
711740,-1,-49,476,-2,-27,38,-0.001383770608975631,0.008302623653853786,0.06918853044878155,0.9975680923494407,-1439,957,-18
711790,-1,-50,477,-7,-12,34,-0.020756559134634464,-0.019372788525658834,0.07057230105775718,0.9971025075893871,501,512,20
711842,-1,-50,476,-18,0,8,0.004151311826926893,-0.012453935480780678,0.07057230105775718,0.9974202807365455,1457,-1068,-64
711893,-2,-50,475,-20,-12,-6,0.024907870961561357,0.015221476698731942,0.06503721862185466,0.9974557959153906,-635,-369,-122
711943,-3,-51,476,-5,-25,-4,0.001383770608975631,0.012453935480780678,0.06365344801287903,0.9978933927158823,-1363,1103,-40
711994,-2,-51,472,1,-11,-1,-0.022140329743610097,-0.017989017916683205,0.060885906794927766,0.9977369930933687,770,241,33
712042,-4,-51,477,-30,3,15,0.001383770608975631,-0.015221476698731942,0.06642098923083029,0.9976746183077976,1369,-1075,-88
712095,-4,-51,472,-19,-10,-26,0.023524100352585727,0.01660524730770757,0.0581183655769765,0.997894352147116,-767,-334,-148
712143,-6,-53,477,-10,-30,6,0.002767541217951262,0.015221476698731942,0.06226967740390339,0.9979394443746227,-1276,1159,-61
712194,-4,-53,472,6,-11,-20,-0.020756559134634464,-0.01660524730770757,0.0581183655769765,0.9979557538274937,778,369,35
712240,-6,-53,477,-29,1,21,0.005535082435902524,-0.022140329743610097,0.05535082435902524,0.9982061184465102,953,-257,-348
712296,-7,-54,479,-42,-11,25,0.017989017916683205,-0.01383770608975631,0.044280659487220195,0.9987613009723313,-775,61,-894
712341,-6,-58,478,-27,-45,18,-0.008302623653853786,-0.01383770608975631,0.02629164157053699,0.9995240536946384,-963,-82,-839
712402,2,-55,479,28,-16,-8,-0.02767541217951262,-0.015221476698731942,0.006918853044878155,0.9994771171369294,-1256,1787,-768
712442,6,-55,476,26,9,-25,-0.05119951253209835,-0.05119951253209835,-0.011070164871805049,0.9973137276116588,-592,1786,-972
712491,11,-54,475,-25,69,-64,-0.07887492471161096,-0.11485296054497737,-0.03597803583336641,0.9895924032870123,-2130,3117,-885
712541,8,-50,471,-125,147,-117,-0.12453935480780678,-0.17158755551297825,-0.05258328314107398,0.9758497108834133,-1278,1254,-608
712590,-2,-39,463,-288,286,-185,-0.14252837272448998,-0.19372788525658835,-0.07057230105775718,0.9680778479884417,-596,895,282
712640,-21,-20,451,-461,434,-277,-0.13699329028858748,-0.1868090322117102,-0.06365344801287903,0.970712863032165,3372,-3247,-4
712697,-26,-21,438,-504,416,-294,-0.020756559134634464,-0.09686394262829418,-0.06226967740390339,0.9931309224605821,4287,-3954,-98
712741,-34,19,431,-491,467,-246,0.06503721862185466,-0.006918853044878155,-0.05673459496800087,0.9962446865104443,793,-2138,-45
712791,-55,37,422,-493,406,-217,0.05396705375004961,0.01383770608975631,-0.05119951253209835,0.9971332332823876,-2388,786,86
712840,-81,57,412,-488,373,-150,0.001383770608975631,-0.006918853044878155,-0.047048200705171454,0.998867699678917,-87,346,338
712897,-106,76,407,-496,366,-64,0.034594265224390776,0.006918853044878155,-0.0401293476602933,0.9985714805373159,3346,-2700,174
712940,-104,49,446,-373,124,159,0.11485296054497737,0.07333984227570844,-0.037361806442342035,0.9899667471225451,1394,-2566,98
712990,-121,53,456,-274,-11,163,0.12038804298087989,0.11762050176292864,-0.030442953397463883,0.9852641083794287,-2760,760,179
713041,-133,49,464,-162,-108,156,0.03874557705131767,0.07749115410263534,-0.020756559134634464,0.9960236275047357,-2346,2347,318
713094,-164,47,464,-256,-76,142,0.008302623653853786,0.02905918278848825,-0.015221476698731942,0.9994273045015518,1656,-640,375
713140,-181,45,470,-242,-87,123,0.060885906794927766,0.06503721862185466,-0.005535082435902524,0.9960082476616949,1943,-2882,111
713195,-191,38,472,-146,-161,57,0.07887492471161096,0.12730689602575807,0.0,0.9887222564886584,-1929,-325,79
713240,-196,30,474,-36,-212,16,0.024907870961561357,0.1120854193270261,0.008302623653853786,0.9933516613862934,-2581,2443,210
713293,-196,20,475,40,-215,18,-0.015221476698731942,0.05673459496800087,0.01660524730770757,0.9981351402203895,617,1076,382
713340,-193,9,478,81,-205,32,0.011070164871805049,0.047048200705171454,0.023524100352585727,0.9985542223448451,1798,-1929,156
713394,-202,13,477,66,-164,30,0.03597803583336641,0.08856131897444039,0.02629164157053699,0.9950734763335856,-1288,-822,35
713441,-196,4,480,165,-183,9,-0.006918853044878155,0.09271263080136728,0.031826724006439516,0.9951600661207476,-2260,2082,123
713493,-189,0,481,206,-125,14,-0.044280659487220195,0.023524100352585727,0.03597803583336641,0.9980938937973478,684,1659,304
713541,-181,-3,482,198,-70,8,-0.008302623653853786,0.012453935480780678,0.04566443009619582,0.9988446955135181,2154,-1460,130
713597,-173,-6,479,219,-73,-14,0.022140329743610097,0.05119951253209835,0.044280659487220195,0.9974605951668951,-831,-949,-24
713640,-160,-9,477,276,-71,-32,-0.01383770608975631,0.05673459496800087,0.044280659487220195,0.9973108476394746,-2043,1698,55
713692,-148,-11,474,306,-44,-37,-0.04151311826926893,0.011070164871805049,0.04566443009619582,0.9980325006157177,523,1967,248
713740,-137,-10,475,277,7,0,-0.020756559134634464,-0.023524100352585727,0.05673459496800087,0.997896271006816,2147,-840,114
713790,-123,-8,477,245,7,11,0.02629164157053699,0.01660524730770757,0.06503721862185466,0.9973982030960901,-104,-1483,-68
713841,-110,-8,474,272,-9,-22,0.001383770608975631,0.02905918278848825,0.06365344801287903,0.9975479375100921,-1924,1122,-16
713891,-96,-9,472,278,9,-23,-0.030442953397463883,-0.019372788525658834,0.06365344801287903,0.9973194875310778,427,1923,139
713940,-83,-8,469,251,24,-27,0.001383770608975631,-0.04289688887824456,0.06503721862185466,0.996959428611517,2197,-549,104
713992,-74,-7,472,205,7,14,0.0401293476602933,-0.017989017916683205,0.07333984227570844,0.9963369401089808,-174,-1373,-77
714041,-64,-8,473,196,-33,17,0.011070164871805049,0.001383770608975631,0.07472361288468407,0.9971418747129581,-2230,702,-37
714090,-55,-9,474,178,-20,33,-0.02905918278848825,-0.030442953397463883,0.07333984227570844,0.9964186158533367,110,1369,74
714141,-47,-9,474,146,-1,25,0.0,-0.04566443009619582,0.07472361288468407,0.9961581910025382,2349,-618,62
714190,-42,-9,479,98,-23,48,0.044280659487220195,-0.015221476698731942,0.08302623653853786,0.9954467207684867,167,-1274,-111
714240,-37,-12,482,96,-64,38,0.019372788525658834,-0.002767541217951262,0.09132886019239164,0.9956284824553312,-2429,417,-52
714290,-31,-16,477,95,-60,-17,-0.030442953397463883,-0.02629164157053699,0.08164246592956223,0.9958496291754627,-342,903,39
714340,-28,-17,478,55,-32,10,-0.009686394262829417,-0.034594265224390776,0.08717754836546475,0.9955448184992761,2340,-731,15
714393,-26,-18,478,36,-40,13,0.03321049461541514,-0.009686394262829417,0.09132886019239164,0.9952197124803864,106,-997,-93
714441,-22,-23,475,53,-83,-28,0.012453935480780678,0.006918853044878155,0.08856131897444039,0.9959688357298593,-2291,582,-42
714491,-18,-26,472,58,-76,-41,-0.02767541217951262,-0.015221476698731942,0.08302623653853786,0.9960466968240248,-374,832,65
714541,-16,-28,469,35,-45,-38,-0.011070164871805049,-0.023524100352585727,0.08164246592956223,0.99632252604729,2206,-817,24
714590,-14,-31,467,23,-56,-36,0.034594265224390776,0.006918853044878155,0.08164246592956223,0.996037084672588,315,-959,-76
714640,-11,-34,467,48,-83,-37,0.01383770608975631,0.015221476698731942,0.07749115410263534,0.9967807911337001,-2290,723,-30
714690,-10,-38,469,43,-74,2,-0.03321049461541514,-0.011070164871805049,0.08302623653853786,0.9959323062052748,-624,1041,68
714740,-8,-40,470,21,-31,15,-0.024907870961561357,-0.024907870961561357,0.08302623653853786,0.9959246156083156,2120,-755,-7
714791,-7,-40,469,16,-20,1,0.01660524730770757,0.002767541217951262,0.07887492471161096,0.9967423702889301,627,-1154,-97
714840,-4,-42,466,45,-43,-25,0.009686394262829417,0.022140329743610097,0.07333984227570844,0.9970141659475071,-2033,808,-48
714892,-1,-43,467,52,-33,-9,-0.031826724006439516,-0.008302623653853786,0.07610738349365971,0.9965569688970267,-549,1283,95
714940,0,-44,470,20,5,34,-0.020756559134634464,-0.02767541217951262,0.08302623653853786,0.9959467259145096,1986,-702,43
714990,0,-44,472,4,5,46,0.019372788525658834,0.001383770608975631,0.08164246592956223,0.9964724220973615,699,-1265,-90
715041,2,-44,473,32,-16,22,0.012453935480780678,0.022140329743610097,0.08302623653853786,0.996223543857568,-1865,743,-42
715091,5,-44,471,51,-5,-10,-0.02905918278848825,-0.012453935480780678,0.0844100071475135,0.9959294222383746,-582,1290,85
715140,7,-43,471,29,19,-2,-0.01660524730770757,-0.024907870961561357,0.08579377775648912,0.9958630886945666,1928,-648,48
715190,6,-42,475,2,17,26,0.02905918278848825,0.006918853044878155,0.09132886019239164,0.9953726601952493,846,-1300,-103
715240,6,-42,476,17,-8,11,0.02767541217951262,0.023524100352585727,0.08994508958341602,0.9952841650117452,-1773,673,-70
715290,10,-42,473,52,-17,-31,-0.008302623653853786,0.002767541217951262,0.08717754836546475,0.996154346583428,-708,1257,47
715341,13,-41,471,25,10,-23,-0.004151311826926893,-0.020756559134634464,0.09132886019239164,0.9955957870335554,1789,-617,15
715391,14,-41,467,22,7,-36,0.023524100352585727,-0.001383770608975631,0.09132886019239164,0.9955419334098699,606,-1157,-127
715440,17,-41,464,44,-23,-54,0.023524100352585727,0.022140329743610097,0.0844100071475135,0.9959073115480187,-1666,707,-77
715490,18,-42,465,48,-26,-21,-0.01383770608975631,-0.009686394262829417,0.08717754836546475,0.9960495804513677,-553,1326,26
715540,21,-43,461,31,-11,-34,-0.004151311826926893,-0.02629164157053699,0.0844100071475135,0.9960755327217905,1608,-658,3
715590,20,-43,464,2,-20,3,0.02767541217951262,-0.0,0.08302623653853786,0.9961629965055623,584,-1354,-111
715647,22,-45,461,26,-46,-18,0.017989017916683205,0.022140329743610097,0.07887492471161096,0.996476265289332,-1770,848,-61
715691,23,-47,461,37,-45,0,-0.01660524730770757,-0.006918853044878155,0.07749115410263534,0.9968307360180237,-423,1384,75
715741,24,-48,464,9,-27,31,-0.006918853044878155,-0.02905918278848825,0.0802586953205866,0.9963263698174639,1673,-576,52
715790,23,-50,469,-19,-34,54,0.024907870961561357,-0.004151311826926893,0.08579377775648912,0.9959928675811629,376,-1377,-104
715841,22,-53,473,-9,-63,54,0.012453935480780678,0.019372788525658834,0.08994508958341602,0.9956804082714553,-1834,438,-68
715890,23,-55,473,11,-55,32,-0.022140329743610097,-0.001383770608975631,0.09271263080136728,0.9954457589781752,-461,1182,12
715941,25,-56,469,10,-28,-21,-0.012453935480780678,-0.020756559134634464,0.08856131897444039,0.9957765600401721,1767,-512,17
715990,26,-58,465,5,-33,-39,0.024907870961561357,0.006918853044878155,0.08579377775648912,0.9959774872631287,507,-1212,-93
716041,28,-60,461,25,-52,-58,0.01383770608975631,0.023524100352585727,0.07887492471161096,0.996510853350084,-1841,514,-44
716090,29,-62,459,39,-43,-42,-0.02767541217951262,-0.005535082435902524,0.0802586953205866,0.9963744156934978,-362,1267,87
716140,30,-63,459,22,-20,-9,-0.01660524730770757,-0.023524100352585727,0.0802586953205866,0.9963580803555961,1806,-455,67
716190,24,-62,472,-32,-11,84,0.022140329743610097,-0.001383770608975631,0.09409640141034291,0.9953159087542857,456,-1209,-67
716241,23,-64,477,-17,-40,80,0.009686394262829417,0.017989017916683205,0.10101525445522107,0.9946750662241037,-1858,385,-71
716291,23,-65,479,-3,-32,61,-0.02629164157053699,-0.001383770608975631,0.10378279567317232,0.9942514601873556,-437,908,14
716344,23,-65,479,-14,5,30,-0.015221476698731942,-0.01383770608975631,0.10931787810907485,0.9937939555375717,1935,-615,-25
716394,26,-61,476,3,16,-21,0.024907870961561357,0.015221476698731942,0.10516656628214796,0.994026105264693,419,-890,-87
716440,28,-61,472,34,-5,-57,0.009686394262829417,0.023524100352585727,0.1023990250641967,0.9944180359057696,-1715,621,-56
716491,30,-61,467,52,0,-76,-0.022140329743610097,-0.0,0.09963148384624543,0.9947780522435341,-342,1007,79
716540,34,-61,461,41,20,-82,-0.006918853044878155,-0.01383770608975631,0.09686394262829418,0.9951773831740849,1866,-621,37
716590,33,-59,464,17,11,-29,0.031826724006439516,0.01383770608975631,0.10101525445522107,0.994279385231605,567,-1038,-14
716640,34,-60,465,37,-17,-10,0.020756559134634464,0.023524100352585727,0.10101525445522107,0.9943901147551895,-1687,667,0
716690,36,-61,467,47,-18,27,-0.01383770608975631,-0.006918853044878155,0.10516656628214796,0.9943342701019308,-260,1071,105
716740,38,-61,468,31,-6,40,0.005535082435902524,-0.01660524730770757,0.10378279567317232,0.9944459562724051,1828,-708,71
716790,39,-61,470,26,-22,36,0.037361806442342035,0.008302623653853786,0.10516656628214796,0.9937178448615331,286,-983,-41
716845,43,-64,470,59,-63,13,0.022140329743610097,0.019372788525658834,0.10793410750009921,0.9937226621657279,-1848,906,6
716890,48,-66,466,75,-60,-24,-0.015221476698731942,-0.012453935480780678,0.10516656628214796,0.9942601266643318,-388,973,94
716945,50,-69,466,45,-43,-7,0.004151311826926893,-0.015221476698731942,0.10793410750009921,0.9940328473925711,1666,-875,47
716991,52,-71,468,39,-58,1,0.02905918278848825,0.009686394262829417,0.11070164871805048,0.9933815393054954,196,-878,-61
717041,55,-75,468,63,-85,-4,0.009686394262829417,0.01383770608975631,0.1120854193270261,0.9935550062430581,-1715,881,-3
717092,59,-79,468,75,-80,-10,-0.017989017916683205,-0.01660524730770757,0.11485296054497737,0.9930807915020293,-126,992,104
717143,62,-81,466,51,-63,-17,-0.006918853044878155,-0.02767541217951262,0.11485296054497737,0.9929728085336936,1554,-877,0
717190,65,-85,463,41,-75,-37,0.024907870961561357,0.004151311826926893,0.11346918993600175,0.9932205734425488,-23,-918,-89
717240,67,-90,465,46,-99,-7,0.004151311826926893,0.009686394262829417,0.116236731153953,0.9931656270265017,-1623,871,-32
717290,70,-93,465,50,-86,-8,-0.020756559134634464,-0.017989017916683205,0.116236731153953,0.9928416705688412,-60,982,80
717343,72,-97,463,25,-67,-7,-0.005535082435902524,-0.02629164157053699,0.12038804298087989,0.9923632558459569,1532,-979,-18
717392,72,-100,465,8,-75,7,0.019372788525658834,-0.0,0.12315558419883116,0.9921982650384875,-158,-984,-104
717444,76,-104,459,40,-88,-52,0.002767541217951262,0.017989017916683205,0.11762050176292864,0.9928918136005741,-1633,853,-45
717490,79,-109,452,53,-75,-79,-0.02767541217951262,-0.012453935480780678,0.1120854193270261,0.9932350325205104,169,1051,66
717540,79,-112,454,10,-52,-12,-0.002767541217951262,-0.023524100352585727,0.11346918993600175,0.9932591305160381,1683,-666,15
717591,78,-114,456,-5,-62,17,0.022140329743610097,-0.0,0.11762050176292864,0.9928117764026981,-244,-1079,-84
717641,79,-119,458,8,-84,21,-0.002767541217951262,0.015221476698731942,0.11762050176292864,0.9929380972284998,-1716,455,-28
717691,79,-123,461,13,-73,39,-0.02905918278848825,-0.001383770608975631,0.11900427237190427,0.9924674464342902,350,725,35
717740,81,-125,460,13,-39,28,-0.006918853044878155,-0.009686394262829417,0.12177181358985553,0.9924867397873717,1855,-544,8
717790,82,-127,463,11,-51,33,0.02629164157053699,0.01383770608975631,0.12453935480780678,0.9917697396965462,-92,-643,-77
717840,85,-130,458,50,-67,-24,0.001383770608975631,0.01660524730770757,0.11900427237190427,0.9927539141690579,-1814,592,-23
717894,87,-134,462,44,-52,13,-0.02629164157053699,-0.009686394262829417,0.12315558419883116,0.991991746654354,322,576,40
717941,88,-136,462,32,-36,23,-0.004151311826926893,-0.008302623653853786,0.12453935480780678,0.9921712463857403,1756,-696,-4
717991,90,-138,464,35,-50,25,0.02767541217951262,0.015221476698731942,0.1259231254167824,0.9915370616840671,-201,-513,-62
718041,93,-141,460,60,-71,-16,0.005535082435902524,0.01383770608975631,0.12315558419883116,0.9922754571353893,-1828,876,19
718095,96,-144,457,66,-61,-25,-0.02629164157053699,-0.011070164871805049,0.12315558419883116,0.991977269454236,226,559,98
718140,97,-146,460,27,-32,14,-0.009686394262829417,-0.017989017916683205,0.1286906666347337,0.9914742968537743,1663,-784,21
718194,99,-148,457,24,-41,-7,0.019372788525658834,0.008302623653853786,0.1259231254167824,0.9918160756866526,-248,-467,-31
718240,101,-151,454,45,-53,-31,-0.002767541217951262,0.006918853044878155,0.12315558419883116,0.992359396725196,-1677,802,60
718290,102,-153,457,29,-39,13,-0.02905918278848825,-0.01660524730770757,0.12730689602575807,0.9912985341872558,16,459,132
718341,105,-154,450,20,-13,-24,-0.01383770608975631,-0.012453935480780678,0.13007443724370932,0.991329439771132,1542,-1057,68
718390,104,-154,454,6,-10,10,0.01383770608975631,0.019372788525658834,0.13145820785268494,0.9910357978110952,112,-733,2
718440,104,-155,456,25,-18,17,-0.001383770608975631,0.017989017916683205,0.12730689602575807,0.9916992662282159,-1367,920,65
718490,105,-156,459,26,-3,47,-0.024907870961561357,-0.012453935480780678,0.13007443724370932,0.991113080445887,122,638,144
718541,105,-156,463,5,13,58,-0.009686394262829417,-0.012453935480780678,0.13284197846166057,0.9910116457517627,1386,-975,32
718590,106,-155,464,12,10,38,0.01383770608975631,0.019372788525658834,0.13145820785268494,0.9910357978110952,-78,-679,-30
718640,108,-155,463,42,3,7,-0.005535082435902524,0.017989017916683205,0.1286906666347337,0.9915061625718364,-1360,1016,54
718692,109,-155,471,33,13,56,-0.022140329743610097,-0.011070164871805049,0.13284197846166057,0.9908280708614119,323,792,123
718741,109,-154,475,11,26,54,-0.001383770608975631,-0.015221476698731942,0.14114460211551436,0.9898709982213162,1398,-910,21
718790,109,-153,478,9,15,38,0.019372788525658834,0.015221476698731942,0.13976083150653873,0.9898787358502308,-351,-626,-84
718841,110,-153,480,26,3,26,-0.001383770608975631,0.012453935480780678,0.14114460211551436,0.9899096857610776,-1481,944,13
718890,112,-153,481,24,18,14,-0.023524100352585727,-0.01660524730770757,0.14252837272448998,0.9893717933279482,516,482,66
718940,113,-151,475,4,33,-14,0.004151311826926893,-0.009686394262829417,0.1466796845514169,0.9891279040226282,1502,-999,-21
718993,114,-150,471,13,21,-51,0.020756559134634464,0.01660524730770757,0.14529591394244126,0.9890311058841228,-568,-455,-110
719040,114,-149,471,26,9,-37,-0.004151311826926893,0.012453935480780678,0.1466796845514169,0.9890969296489869,-1411,930,-18
719093,116,-149,467,30,22,-54,-0.022140329743610097,-0.011070164871805049,0.14252837272448998,0.9894811368677344,766,281,26
719140,118,-147,460,19,36,-71,0.004151311826926893,-0.008302623653853786,0.1383770608975631,0.990336115704123,1415,-1054,-37
719190,119,-145,457,26,20,-64,0.023524100352585727,0.020756559134634464,0.13699329028858748,0.990075057948335,-656,-391,-92
719245,122,-145,448,60,8,-90,-0.005535082435902524,0.011070164871805049,0.13145820785268494,0.9912444470968295,-1103,1252,31
719290,124,-145,445,52,17,-71,-0.01660524730770757,-0.017989017916683205,0.13284197846166057,0.9908348347502902,783,628,97
719340,126,-143,442,28,21,-42,0.012453935480780678,-0.01660524730770757,0.13560951967961185,0.9905449123715468,1247,-997,25
719390,128,-143,440,27,0,-25,0.024907870961561357,0.012453935480780678,0.13560951967961185,0.9903709182056325,-720,-644,-21
719440,129,-143,439,44,-13,-9,-0.005535082435902524,0.008302623653853786,0.13699329028858748,0.9905217149153254,-1293,922,49
719494,123,-147,468,0,-14,124,-0.015221476698731942,-0.019372788525658834,0.14806345516039252,0.988670933606231,878,489,120
719540,123,-147,474,-20,-13,127,0.015221476698731942,-0.01383770608975631,0.15498230820527067,0.9877030468114645,1221,-909,9
719591,123,-149,479,-13,-36,106,0.023524100352585727,0.011070164871805049,0.1605173906411732,0.9866905469568772,-930,-656,-74
719641,125,-151,480,13,-44,54,-0.012453935480780678,0.011070164871805049,0.16190116125014883,0.9866662885325539,-1597,700,-23
719692,128,-150,478,28,-15,-4,-0.03321049461541514,-0.008302623653853786,0.1563660788142463,0.9871057587128741,714,391,20
719741,128,-149,478,7,11,-9,-0.002767541217951262,-0.004151311826926893,0.1605173906411732,0.9870204023359758,1608,-779,-39
719790,128,-149,478,13,2,-26,0.019372788525658834,0.019372788525658834,0.1605173906411732,0.9866527035544114,-549,-322,-128
719844,131,-148,473,40,-2,-63,-0.002767541217951262,0.015221476698731942,0.15498230820527067,0.9877960981427713,-1559,952,-4
719894,134,-148,467,41,18,-70,-0.030442953397463883,-0.01383770608975631,0.15359853759629505,0.9875673312371632,627,311,30
719941,134,-146,467,11,40,-37,-0.002767541217951262,-0.006918853044878155,0.15083099637834377,0.9885314768481914,1535,-903,-52
719990,135,-144,462,24,33,-64,0.017989017916683205,0.01660524730770757,0.14529591394244126,0.9890853140087936,-339,-304,-136
720042,137,-143,459,43,22,-51,-0.005535082435902524,0.006918853044878155,0.13976083150653873,0.9901456470194534,-1311,1059,-27
720090,138,-142,458,32,35,-23,-0.022140329743610097,-0.017989017916683205,0.13699329028858748,0.9901611179243226,500,466,19
720141,137,-139,463,-10,52,39,0.002767541217951262,-0.015221476698731942,0.14114460211551436,0.9898680965948797,1371,-938,-67
720190,138,-136,458,3,36,-6,0.020756559134634464,0.011070164871805049,0.13284197846166057,0.9908580248759119,-428,-369,-101
720240,138,-135,458,14,25,0,0.001383770608975631,0.005535082435902524,0.13145820785268494,0.9913052948660618,-1246,976,-19
720295,136,-134,468,-17,32,71,-0.015221476698731942,-0.023524100352585727,0.13699329028858748,0.9901756216781032,817,230,50
720340,134,-132,471,-42,33,73,0.01383770608975631,-0.01383770608975631,0.13560951967961185,0.9905690758107746,1312,-988,-47
720394,132,-132,475,-36,5,56,0.023524100352585727,0.011070164871805049,0.1383770608975631,0.9900383109605732,-900,-144,-124
720441,131,-132,478,-30,-5,51,-0.002767541217951262,-0.0,0.1383770608975631,0.9903757517896725,-1400,934,-33
720494,130,-131,476,-32,6,33,-0.020756559134634464,-0.022140329743610097,0.13560951967961185,0.9902974448235236,728,159,20
720540,127,-130,479,-64,19,29,0.006918853044878155,-0.011070164871805049,0.1383770608975631,0.9902935776524083,1267,-1124,-56
720594,126,-129,472,-48,12,-48,0.017989017916683205,0.015221476698731942,0.13699329028858748,0.9902916440611876,-826,-344,-104
720641,124,-128,469,-29,4,-65,-0.008302623653853786,0.011070164871805049,0.13560951967961185,0.9906657236739538,-1246,972,4
720694,123,-128,464,-29,21,-81,-0.023524100352585727,-0.01383770608975631,0.13560951967961185,0.9903863855915225,1007,175,62
720740,119,-126,464,-58,34,-42,0.005535082435902524,-0.006918853044878155,0.14114460211551436,0.9899493389202421,1237,-1008,-38
720790,117,-124,458,-36,20,-66,0.01660524730770757,0.020756559134634464,0.13560951967961185,0.9904057194841946,-818,-295,-92
720840,117,-124,453,-9,16,-64,-0.012453935480780678,0.009686394262829417,0.13284197846166057,0.9910116457517627,-1141,1082,12
720893,114,-123,457,-26,30,-11,-0.022140329743610097,-0.012453935480780678,0.13699329028858748,0.9902462035806002,1063,254,49
720940,110,-121,463,-56,36,26,0.006918853044878155,-0.017989017916683205,0.13699329028858748,0.9903844521814967,-170,968,-567
720990,109,-121,463,-67,19,21,-0.002767541217951262,-0.030442953397463883,0.13284197846166057,0.9906657236739538,-777,-430,-32
721040,108,-121,464,-69,19,14,-0.024907870961561357,-0.01660524730770757,0.12177181358985553,0.9921065916226187,-686,-116,-548
721090,108,-119,463,-62,43,3,-0.030442953397463883,-0.024907870961561357,0.11346918993600175,0.9927625937190974,61,1060,-505
721140,109,-118,462,-56,50,-4,-0.02629164157053699,-0.04843197131414709,0.10516656628214796,0.9929265265237779,-105,861,-400
721191,108,-113,457,-100,84,-40,-0.030442953397463883,-0.06226967740390339,0.09132886019239164,0.9934056337470673,-1744,1021,-520
721240,107,-106,451,-126,130,-84,-0.06918853044878155,-0.0844100071475135,0.07749115410263534,0.991001018659182,-1953,1209,-491
721291,99,-96,444,-221,224,-133,-0.11485296054497737,-0.12730689602575807,0.060885906794927766,0.9833080178825453,-1589,2543,-384
721340,84,-81,436,-375,339,-200,-0.14944722576936814,-0.19787919708351523,0.05396705375004961,0.9672625844004109,-1472,2475,-413
721390,82,-79,411,-476,396,-383,-0.17573886733990512,-0.2518462508335648,0.03597803583336641,0.9509967914692128,-1780,1847,-915
721440,86,-116,447,-574,309,-336,-0.19096034403863707,-0.28920805727590687,0.005535082435902524,0.938009706492299,-1723,1913,-1552
721492,64,-115,444,-787,406,-392,-0.1743550967309295,-0.2975106809297607,-0.017989017916683205,0.9384903250492524,6216,-4866,-258
721540,66,-66,465,-821,572,-258,0.023524100352585727,-0.13007443724370932,-0.011070164871805049,0.9911633109271372,8594,-8308,-329
721594,41,-46,464,-798,457,-211,0.18957657342966144,0.05950213618595213,0.001383770608975631,0.9800603572101457,3493,-7367,-407
721641,0,-31,453,-604,147,-309,0.2532300214425405,0.24077608596175978,0.030442953397463883,0.9364692516348765,-2069,-1301,-400
721690,-15,-33,451,-359,-61,-299,0.17158755551297825,0.21310067378224717,0.03597803583336641,0.9611718860662779,-5951,5025,-279
721740,-27,-36,445,-206,-149,-246,0.05396705375004961,0.0982477132372698,0.04289688887824456,0.9927712731932538,-4352,4972,282
721790,-45,-36,440,-214,-83,-121,-0.0401293476602933,-0.022140329743610097,0.06365344801287903,0.9969190939144837,535,-334,318
721840,-61,-32,439,-274,1,-55,0.002767541217951262,0.031826724006439516,0.06226967740390339,0.9975479375100921,3675,-4597,-194
721895,-79,-25,438,-226,20,-37,0.07333984227570844,0.1466796845514169,0.05258328314107398,0.9850590520415397,825,-2005,-218
721940,-88,-24,435,-104,-21,-75,0.06918853044878155,0.16190116125014883,0.049815741923122714,0.9831171614293182,-2401,2848,-118
721991,-96,-19,430,-5,-14,-80,0.0,0.05950213618595213,0.05950213618595213,0.9964532059151683,-2066,3653,288
722040,-103,-13,426,-36,49,-54,-0.024907870961561357,-0.0,0.07749115410263534,0.9966818544550733,1000,-683,250
722090,-108,-7,425,-51,86,-12,0.01383770608975631,0.05258328314107398,0.07887492471161096,0.9954005537852674,2298,-3583,-52
722141,-113,-1,423,8,81,-20,0.04843197131414709,0.13007443724370932,0.07195607166673282,0.9877030468114645,269,-861,-101
722191,-110,0,421,128,41,-37,0.04151311826926893,0.11346918993600175,0.07057230105775718,0.9901620848478508,-1132,3098,53
722240,-104,0,420,199,4,-5,0.024907870961561357,0.037361806442342035,0.07333984227570844,0.9962956192408463,-94,2109,347
722294,-95,-2,424,199,-45,50,0.0401293476602933,0.017989017916683205,0.08164246592956223,0.9956909854205234,913,-1963,93
722340,-89,-5,430,215,-89,89,0.04843197131414709,0.06503721862185466,0.08579377775648912,0.9930075186255283,-381,-1591,-36
722391,-75,-11,435,299,-125,99,0.023524100352585727,0.06918853044878155,0.08717754836546475,0.9935087513544743,-1260,2008,3
722440,-61,-17,440,343,-135,112,0.009686394262829417,0.011070164871805049,0.08994508958341602,0.9958380923000121,178,2626,241
722493,-87,20,439,175,11,134,0.01383770608975631,-0.03874557705131767,0.09686394262829418,0.9944469190296868,1179,-937,149
722540,-83,24,452,116,0,163,0.034594265224390776,0.0,0.10793410750009921,0.9935559698636718,-143,-2563,-94
722591,-78,25,460,134,-14,146,0.009686394262829417,0.04843197131414709,0.10931787810907485,0.99277898821769,-1426,83,-108
722640,-73,26,465,160,4,134,-0.01383770608975631,0.030442953397463883,0.10793410750009921,0.9935954775041854,458,2051,20
722690,-72,18,460,139,-16,82,0.023524100352585727,-0.015221476698731942,0.10931787810907485,0.9936118582602771,2166,253,107
722740,-68,17,461,106,-48,43,0.06503721862185466,0.002767541217951262,0.1120854193270261,0.991564097617408,-41,-1731,-99
722790,-64,14,461,121,-94,7,0.03321049461541514,0.03321049461541514,0.10931787810907485,0.9928966349124809,-2487,-356,-130
722840,-58,10,462,150,-94,19,-0.020756559134634464,0.017989017916683205,0.10655033689112359,0.9939278576414244,-345,1389,-42
722891,-53,7,465,142,-70,40,-0.001383770608975631,-0.009686394262829417,0.10378279567317232,0.9945518539861797,2512,356,26
722940,-49,5,468,109,-85,55,0.05535082435902524,-0.002767541217951262,0.10516656628214796,0.992909170213875,527,-978,-55
722997,-43,-1,473,119,-144,53,0.02905918278848825,0.01660524730770757,0.10655033689112359,0.9937438580267569,-2754,31,-67
723040,-39,-6,473,121,-136,42,-0.024907870961561357,0.004151311826926893,0.10378279567317232,0.994279385231605,-1156,744,0
723090,-32,-12,475,112,-104,44,-0.01383770608975631,-0.009686394262829417,0.10378279567317232,0.9944565465512403,2373,-54,-12
723140,-29,-16,476,101,-101,33,0.03597803583336641,0.004151311826926893,0.10931787810907485,0.9933468422829047,1253,-662,-65
723190,-24,-22,478,111,-142,8,0.03874557705131767,0.015221476698731942,0.11070164871805048,0.9929814861703997,-2307,301,-89
723240,-18,-29,477,120,-154,-14,-0.017989017916683205,-0.005535082435902524,0.10931787810907485,0.9938286369503299,-1651,793,-4
723290,-12,-36,476,103,-123,-4,-0.031826724006439516,-0.019372788525658834,0.10931787810907485,0.9933082886141077,1911,-435,-39
723340,-6,-41,471,93,-104,-40,0.023524100352585727,0.006918853044878155,0.1023990250641967,0.9944411424720152,1661,-955,-68
723390,-2,-46,466,111,-130,-67,0.031826724006439516,0.020756559134634464,0.0982477132372698,0.994436328648323,-1790,441,-35
723440,2,-52,466,109,-129,-35,-0.02629164157053699,-0.009686394262829417,0.0982477132372698,0.9947674653874435,-1775,1106,80
723497,7,-57,464,95,-99,-29,-0.03874557705131767,-0.02629164157053699,0.09686394262829418,0.9941956077457742,1795,-586,44
723540,8,-60,469,50,-70,31,0.008302623653853786,-0.001383770608975631,0.1023990250641967,0.994707791909396,1703,-1303,-44
723590,12,-63,468,66,-82,9,0.022140329743610097,0.022140329743610097,0.0982477132372698,0.9946692909914006,-1344,286,-61
723640,16,-68,469,84,-86,10,-0.019372788525658834,-0.001383770608975631,0.10101525445522107,0.9946952792745066,-1600,1457,81
723690,20,-70,468,69,-56,10,-0.037361806442342035,-0.030442953397463883,0.1023990250641967,0.9935752420796861,1171,-80,100
723740,23,-72,464,44,-33,-14,0.004151311826926893,-0.006918853044878155,0.09963148384624543,0.9949916901709553,1639,-1586,-25
723791,26,-75,463,59,-50,-27,0.019372788525658834,0.02767541217951262,0.10101525445522107,0.994311161052103,-1170,54,-71
723849,29,-77,463,76,-55,-17,-0.01383770608975631,0.006918853044878155,0.09963148384624543,0.9949041234155742,-1129,1628,111
723890,32,-79,464,57,-25,5,-0.031826724006439516,-0.031826724006439516,0.10516656628214796,0.9934355100430317,944,236,147
723940,34,-80,466,21,-9,23,-0.0,-0.01660524730770757,0.10793410750009921,0.9940193630910853,1439,-1619,-49
723991,37,-80,460,40,-19,-30,0.01660524730770757,0.023524100352585727,0.10101525445522107,0.9944680994540741,-1044,-200,-95
724040,40,-82,457,66,-20,-34,-0.020756559134634464,0.004151311826926893,0.09963148384624543,0.994799225617713,-1280,1730,64
