Timestamp,stateEstimateZ.x,stateEstimateZ.y,stateEstimateZ.z,stateEstimateZ.vx,stateEstimateZ.vy,stateEstimateZ.vz,stateEstimateZ.qw,stateEstimateZ.qx,stateEstimateZ.qy,stateEstimateZ.qz,stateEstimateZ.rateRoll,stateEstimateZ.ratePitch,stateEstimateZ.rateYaw
95490,-7,12,489,-112,55,73,-0.03874557705131767,-0.0401293476602933,0.03321049461541514,0.9978905144166464,-2786,1893,83
95540,-14,16,493,-166,106,53,-0.10378279567317232,-0.08579377775648912,0.037361806442342035,0.9901881914262034,-2784,1725,137
95589,-25,25,495,-271,228,9,-0.15359853759629505,-0.116236731153953,0.03874557705131767,0.9805076704635634,361,-541,86
95639,-44,44,492,-396,391,-47,-0.13007443724370932,-0.08994508958341602,0.04289688887824456,0.9864838460715568,1456,-1375,-83
95689,-66,67,483,-469,496,-124,-0.11346918993600175,-0.06642098923083029,0.0401293476602933,0.990506249642689,-710,176,-36
95739,-88,90,477,-530,591,-153,-0.1383770608975631,-0.0802586953205866,0.03874557705131767,0.9863615519178299,-1258,706,58
95790,-117,124,468,-624,739,-170,-0.15221476698731942,-0.08717754836546475,0.0401293476602933,0.983676966909535,1588,-1267,11
95847,-151,163,455,-689,858,-186,-0.09548017201931853,-0.03874557705131767,0.037361806442342035,0.9939750562410944,2336,-1925,-122
95892,-184,205,446,-691,906,-163,-0.049815741923122714,0.004151311826926893,0.037361806442342035,0.9980507271106662,228,-349,-93
95939,-208,237,441,-652,897,-139,-0.05119951253209835,0.004151311826926893,0.03874557705131767,0.9979279316591713,-615,768,2
95989,-244,287,437,-655,952,-61,-0.049815741923122714,-0.006918853044878155,0.037361806442342035,0.9980353785054702,1416,-716,23
96043,-270,325,436,-640,964,-10,-0.01383770608975631,0.02629164157053699,0.03874557705131767,0.9988073126147307,1095,-3106,-80
96089,-300,372,438,-554,936,34,0.002767541217951262,0.10793410750009921,0.03321049461541514,0.9935993318240323,-1145,-2207,-152
96139,-328,426,441,-415,973,59,-0.03597803583336641,0.14114460211551436,0.03321049461541514,0.988777449823076,-803,572,-117
96189,-344,478,444,-260,1011,72,-0.02767541217951262,0.11762050176292864,0.031826724006439516,0.9921625616625276,1865,801,43
96244,-350,530,451,-98,989,93,0.03597803583336641,0.12315558419883116,0.02629164157053699,0.9913864194156303,1759,-1137,-25
96292,-353,570,454,2,951,70,0.05119951253209835,0.14806345516039252,0.023524100352585727,0.9873714801760498,-875,-613,-82
96342,-350,606,456,132,901,42,0.02767541217951262,0.15083099637834377,0.024907870961561357,0.9878581274942128,-977,1557,-15
96394,-340,657,457,269,884,28,0.019372788525658834,0.1023990250641967,0.02629164157053699,0.9942071636807736,1731,1556,139
96439,-325,701,461,348,835,49,0.07610738349365971,0.07472361288468407,0.023524100352585727,0.9940174367473693,2059,4,110
96494,-310,735,465,405,743,50,0.1023990250641967,0.07887492471161096,0.02629164157053699,0.9912627984047249,-1059,21,6
96539,-287,771,467,480,654,33,0.06503721862185466,0.06642098923083029,0.030442953397463883,0.995204320213679,-1680,1345,32
96593,-269,796,468,498,593,37,0.04566443009619582,0.03597803583336641,0.03321049461541514,0.9977561845505956,1606,-199,141
96641,-244,827,469,523,527,34,0.10101525445522107,0.05950213618595213,0.03874557705131767,0.9923478192728675,2673,-2555,-33
96689,-214,851,472,613,394,5,0.14529591394244126,0.12453935480780678,0.03597803583336641,0.9808591272110685,-333,-1226,-138
96744,-187,864,472,709,287,-34,0.11762050176292864,0.12453935480780678,0.03874557705131767,0.9844562696880205,-2294,2386,-6
96792,-150,877,470,818,205,-44,0.07333984227570844,0.06780475983980593,0.03874557705131767,0.9942447195419248,43,1853,206
96840,-104,889,469,864,147,-26,0.08994508958341602,0.03597803583336641,0.044280659487220195,0.994311161052103,1995,-1207,78
96890,-59,893,467,908,26,-43,0.1286906666347337,0.07610738349365971,0.044280659487220195,0.9877679898104785,-157,-1088,-72
96939,-22,889,465,957,-92,-56,0.10516656628214796,0.07610738349365971,0.044280659487220195,0.9905487785614339,-2630,2193,4
96989,30,884,463,1000,-165,-41,0.04151311826926893,-0.005535082435902524,0.04289688887824456,0.9982013227794065,-1179,2903,232
97039,73,883,464,909,-145,14,0.034594265224390776,-0.05673459496800087,0.05535082435902524,0.9962533356482064,1183,-366,181
97093,111,878,466,858,-174,38,0.05673459496800087,-0.02767541217951262,0.06226967740390339,0.9960611148772572,-38,-1790,-64
97142,154,863,466,834,-255,24,0.03874557705131767,-0.0,0.05535082435902524,0.9977149224611892,-1483,1357,-16
97193,185,856,467,787,-247,46,0.019372788525658834,-0.04843197131414709,0.05535082435902524,0.997103467781625,1851,3511,165
97240,222,844,470,695,-278,58,0.08302623653853786,-0.1259231254167824,0.06503721862185466,0.9864178479353712,3693,1116,226
97289,256,826,473,568,-413,30,0.15774984942322193,-0.12453935480780678,0.0802586953205866,0.9763009146448871,365,-1685,-46
97339,282,801,475,463,-567,-4,0.11346918993600175,-0.08856131897444039,0.08717754836546475,0.9857391697491593,-3673,-667,-76
97389,300,777,475,395,-633,-6,0.04289688887824456,-0.09548017201931853,0.0844100071475135,0.9909179301885125,-1361,1125,-22
97443,319,734,470,252,-699,-23,0.060885906794927766,-0.12730689602575807,0.0802586953205866,0.986734210617775,2932,287,62
97489,329,701,468,164,-787,-43,0.116236731153953,-0.11346918993600175,0.08994508958341602,0.9826106279324188,894,-1166,-19
97542,333,668,463,81,-867,-92,0.0982477132372698,-0.09132886019239164,0.0982477132372698,0.9860800236204225,-4117,-875,-109
97592,338,619,458,0,-916,-97,-0.017989017916683205,-0.0802586953205866,0.07887492471161096,0.9934856231026035,-2760,-191,-13
97639,334,575,453,-93,-861,-74,-0.04843197131414709,-0.07472361288468407,0.08164246592956223,0.9926757948036337,1773,-600,-36
97693,332,539,452,-136,-814,-58,0.006918853044878155,-0.04843197131414709,0.08302623653853786,0.9953457277114398,2325,-310,-125
97739,326,504,448,-169,-837,-64,0.04843197131414709,-0.05258328314107398,0.08579377775648912,0.9937448214642436,627,2270,-18
97791,324,463,452,-193,-875,-37,0.060885906794927766,-0.116236731153953,0.08302623653853786,0.9878707267302993,-81,2275,186
97839,312,418,451,-323,-939,-36,0.06503721862185466,-0.15083099637834377,0.08994508958341602,0.9823085317685479,670,-785,80
97891,296,378,448,-437,-997,-56,0.07472361288468407,-0.11900427237190427,0.09963148384624543,0.9850522484930883,433,-2063,-122
97940,270,323,444,-529,-1084,-79,0.07472361288468407,-0.07749115410263534,0.10378279567317232,0.9887571157951593,-777,302,-160
97990,245,266,444,-582,-1151,-60,0.05396705375004961,-0.10101525445522107,0.09409640141034291,0.9889536605516508,-709,1409,16
98039,216,209,444,-672,-1185,-46,0.04289688887824456,-0.11762050176292864,0.09132886019239164,0.9879191838331529,-82,-905,-29
98089,194,166,445,-710,-1180,-34,0.03321049461541514,-0.07749115410263534,0.08302623653853786,0.9929747369039597,-783,-2347,-199
98145,154,102,443,-768,-1202,-27,-0.0,-0.030442953397463883,0.07333984227570844,0.9968422614051905,-1678,18,-187
98191,119,48,442,-796,-1191,-10,-0.034594265224390776,-0.037361806442342035,0.06918853044878155,0.9963033069739794,-511,855,-62
98239,74,-18,443,-844,-1159,11,-0.03874557705131767,-0.04843197131414709,0.07195607166673282,0.9954774975678145,379,-952,-68
98289,29,-78,443,-880,-1125,24,-0.02905918278848825,-0.005535082435902524,0.06918853044878155,0.9971649181617006,552,-2155,-200
98344,9,-108,450,-785,-1017,47,-0.024907870961561357,0.0401293476602933,0.05673459496800087,0.9972714871860814,597,-303,-163
98389,-30,-162,450,-718,-981,30,-0.008302623653853786,0.0401293476602933,0.049815741923122714,0.997917378219996,644,1105,-31
98445,-67,-213,451,-680,-972,28,0.008302623653853786,0.017989017916683205,0.04843197131414709,0.99862996441599,438,-268,23
98490,-89,-259,458,-624,-989,54,0.01383770608975631,0.037361806442342035,0.04843197131414709,0.9980315413172892,-117,-1697,-82
98544,-123,-315,459,-569,-1006,36,0.002767541217951262,0.07749115410263534,0.047048200705171454,0.995878470779369,-740,-408,-123
98589,-144,-357,459,-492,-994,14,-0.012453935480780678,0.07749115410263534,0.047048200705171454,0.9958044423165063,-221,1189,-10
98644,-168,-408,459,-418,-970,3,-0.011070164871805049,0.047048200705171454,0.04843197131414709,0.9976563849416004,515,360,107
98696,-197,-472,466,-393,-979,39,-0.0,0.05396705375004961,0.05119951253209835,0.9972292449712928,-305,-1170,-18
98739,-213,-512,466,-350,-976,23,-0.017989017916683205,0.07472361288468407,0.049815741923122714,0.9957967507320468,-1335,-662,-34
98790,-226,-560,462,-251,-927,-24,-0.05258328314107398,0.07472361288468407,0.05258328314107398,0.9944276637069542,-780,765,16
98843,-237,-601,467,-196,-856,13,-0.05535082435902524,0.060885906794927766,0.05673459496800087,0.9949926524001835,941,-744,116
98889,-246,-644,464,-124,-809,-22,-0.031826724006439516,0.11070164871805048,0.05119951253209835,0.992023595750927,657,-3361,-82
98939,-249,-677,463,-22,-774,-35,-0.037361806442342035,0.17712263794888078,0.047048200705171454,0.9823533648111562,-1531,-1809,-126
98994,-244,-720,468,180,-717,-25,-0.08302623653853786,0.18819280282068582,0.05396705375004961,0.977127253801817,-1064,1919,10
99044,-231,-754,459,347,-605,-84,-0.0844100071475135,0.13560951967961185,0.060885906794927766,0.9852806276484791,1541,1451,170
99089,-212,-779,446,460,-548,-167,-0.04566443009619582,0.12315558419883116,0.05950213618595213,0.989548865743346,1817,-735,40
99145,-177,-816,425,632,-521,-245,-0.02629164157053699,0.15498230820527067,0.05535082435902524,0.9860149694450228,-1460,-392,-71
99189,-148,-838,415,755,-484,-231,-0.06642098923083029,0.13976083150653873,0.060885906794927766,0.9860771108386799,-1852,1944,-3
99244,-114,-858,410,845,-405,-158,-0.08302623653853786,0.08164246592956223,0.07057230105775718,0.9906869849385326,1327,2406,144
99289,-78,-874,414,829,-305,1,-0.031826724006439516,0.02767541217951262,0.07610738349365971,0.9962072060457408,2087,508,78
99342,-44,-891,429,807,-310,144,-0.004151311826926893,0.024907870961561357,0.07610738349365971,0.9967798306306297,-944,-395,-38
99392,-9,-905,434,825,-307,154,-0.03597803583336641,0.024907870961561357,0.07472361288468407,0.9962437254905022,-2483,696,-1
99441,29,-920,443,816,-247,172,-0.09271263080136728,0.0,0.07610738349365971,0.9927799525915288,-1135,733,51
99490,76,-933,437,821,-158,56,-0.10516656628214796,-0.011070164871805049,0.07472361288468407,0.9915814774710112,868,-299,8
99540,109,-936,456,733,-43,163,-0.0844100071475135,-0.006918853044878155,0.07610738349365971,0.9934962236182124,113,-65,-51
99590,144,-939,461,701,26,126,-0.0982477132372698,-0.017989017916683205,0.07610738349365971,0.9920843957324343,-1409,790,-19
99639,177,-938,467,663,108,101,-0.1259231254167824,-0.037361806442342035,0.07749115410263534,0.9883028801640091,-453,262,13
99694,205,-935,458,626,179,-21,-0.11900427237190427,-0.034594265224390776,0.07057230105775718,0.9897781419561817,1405,-809,-73
99742,229,-924,469,570,276,53,-0.08856131897444039,-0.017989017916683205,0.07195607166673282,0.9933053970286242,664,-5,-102
99794,261,-908,465,556,348,-5,-0.07887492471161096,-0.023524100352585727,0.07057230105775718,0.9941050816074488,-687,1080,-44
99842,292,-891,459,530,407,-64,-0.08856131897444039,-0.04843197131414709,0.07057230105775718,0.9923864102553734,352,209,9
99895,312,-872,464,461,480,2,-0.07195607166673282,-0.04566443009619582,0.07333984227570844,0.993659071869852,1848,-920,-87
99939,336,-848,461,416,502,-7,-0.024907870961561357,-0.022140329743610097,0.07195607166673282,0.9968509053581174,399,306,-79
99993,354,-831,457,401,485,-62,-0.03597803583336641,-0.049815741923122714,0.07333984227570844,0.995412095731811,-3375,3451,-26
100042,378,-801,450,313,558,-98,-0.12177181358985553,-0.15083099637834377,0.07195607166673282,0.9783884503083862,-2618,2767,209
100094,389,-779,435,166,643,-193,-0.15498230820527067,-0.19511165586556398,0.07195607166673282,0.965781678040672,1472,-1100,52
100140,384,-740,438,-113,774,-138,-0.10516656628214796,-0.15913362003219755,0.05950213618595213,0.9798346697791313,2285,-2422,-121
100194,376,-704,434,-250,828,-117,-0.06780475983980593,-0.11070164871805048,0.05950213618595213,0.9897510572378693,-497,-66,-121
100239,362,-660,427,-368,878,-122,-0.09271263080136728,-0.12730689602575807,0.0581183655769765,0.9858090981000516,-1504,1552,-1
100289,344,-620,423,-496,957,-105,-0.11070164871805048,-0.15083099637834377,0.06365344801287903,0.9802772026619272,702,-432,68
100339,315,-566,415,-641,1052,-106,-0.07057230105775718,-0.10793410750009921,0.05950213618595213,0.9898632605319175,2468,-2993,-126
100393,291,-530,420,-685,1031,-19,-0.023524100352585727,-0.03874557705131767,0.06642098923083029,0.9967615808964347,848,-1703,-254
100439,257,-470,419,-671,1058,0,-0.015221476698731942,-0.009686394262829417,0.060885906794927766,0.9979816565283424,-672,1004,-176
100492,232,-423,419,-646,1059,23,-0.024907870961561357,-0.03597803583336641,0.0581183655769765,0.9973502065395065,476,590,-3
100540,195,-361,416,-689,1087,22,0.005535082435902524,-0.02767541217951262,0.05535082435902524,0.9980679940093752,2148,-2067,-105
100589,165,-312,414,-677,1074,21,0.04843197131414709,0.02905918278848825,0.047048200705171454,0.997294527640003,1308,-1977,-212
100639,138,-265,424,-585,960,85,0.06642098923083029,0.05950213618595213,0.044280659487220195,0.9950311408062982,-540,837,-147
100702,107,-208,436,-484,855,141,0.05535082435902524,0.017989017916683205,0.0401293476602933,0.9974980285361615,238,954,27
100740,92,-181,440,-466,821,156,0.06503721862185466,0.012453935480780678,0.03874557705131767,0.9970525763187887,1221,-830,2
100793,73,-149,451,-447,743,191,0.09132886019239164,0.037361806442342035,0.044280659487220195,0.9941339738238003,562,-1261,-180
100839,52,-109,461,-364,650,169,0.09409640141034291,0.06365344801287903,0.04151311826926893,0.9926584341097682,-975,647,-117
100889,37,-76,466,-295,577,110,0.06642098923083029,0.031826724006439516,0.03597803583336641,0.9966347840438787,-844,1735,5
100940,27,-52,468,-262,526,74,0.05950213618595213,0.002767541217951262,0.037361806442342035,0.997524902909336,869,-24,55
100989,13,-24,470,-249,458,34,0.08579377775648912,0.019372788525658834,0.037361806442342035,0.9954236375445257,642,-1162,-63
101039,1,-2,470,-213,379,-15,0.06642098923083029,0.030442953397463883,0.03321049461541514,0.9967740675927707,-3132,1332,-53
101089,-6,13,469,-201,350,-43,-0.01383770608975631,-0.022140329743610097,0.03321049461541514,0.9991072949070171,-4181,3542,76
101139,-18,33,466,-267,407,-59,-0.0982477132372698,-0.10655033689112359,0.03597803583336641,0.9887871325465397,-492,1281,225
101189,-36,57,463,-393,506,-66,-0.07472361288468407,-0.09963148384624543,0.04289688887824456,0.9912869443448868,2228,-2159,1
101239,-54,80,460,-463,552,-69,-0.03874557705131767,-0.049815741923122714,0.04151311826926893,0.9971428348672876,149,-1630,-116
101294,-80,109,456,-500,591,-79,-0.0581183655769765,-0.031826724006439516,0.037361806442342035,0.9971025075893871,-2405,1690,-58
101340,-122,157,456,-607,719,-69,-0.11346918993600175,-0.0844100071475135,0.04151311826926893,0.9890785381556846,-461,1395,81
101389,-156,197,452,-713,832,-67,-0.09132886019239164,-0.08856131897444039,0.047048200705171454,0.990758496752802,2596,-1958,-14
101440,-197,252,447,-800,943,-69,-0.030442953397463883,-0.015221476698731942,0.04843197131414709,0.9982464011406079,1771,-2971,-189
101501,-235,315,446,-751,983,-59,-0.023524100352585727,0.03321049461541514,0.04151311826926893,0.9983087402009274,-986,581,-196
101540,-256,345,444,-674,941,-59,-0.034594265224390776,0.01383770608975631,0.037361806442342035,0.9986069547740607,-249,1604,-53
101589,-285,386,442,-674,972,-35,-0.024907870961561357,-0.008302623653853786,0.03874557705131767,0.9989041218573408,1537,-1391,75
101639,-318,434,442,-654,967,2,0.009686394262829417,0.05950213618595213,0.04151311826926893,0.9973175675616344,606,-4332,-142
101692,-341,471,442,-536,916,2,0.012453935480780678,0.15083099637834377,0.03874557705131767,0.9877214639165826,-1348,-1640,-268
101739,-363,524,445,-333,940,7,-0.02629164157053699,0.17020378490400262,0.031826724006439516,0.9845437932498972,-516,2161,-134
101789,-377,575,446,-170,974,24,-0.015221476698731942,0.10793410750009921,0.02767541217951262,0.9936561813051641,2092,1562,137
101839,-383,622,446,-83,982,30,0.03874557705131767,0.09963148384624543,0.02629164157053699,0.9939220780670294,2050,-1694,5
101890,-383,666,450,52,886,36,0.07333984227570844,0.14806345516039252,0.024907870961561357,0.985940200390015,-818,-1247,-117
101939,-374,705,453,217,818,28,0.044280659487220195,0.1563660788142463,0.02629164157053699,0.9863557280084909,-1450,2095,-95
101989,-360,747,454,345,792,20,0.02629164157053699,0.08856131897444039,0.02629164157053699,0.9953765076334483,1149,2737,141
102039,-346,784,454,385,762,22,0.06780475983980593,0.0401293476602933,0.02629164157053699,0.9965444794804454,2370,22,141
102089,-328,822,455,416,693,15,0.11070164871805048,0.05258328314107398,0.030442953397463883,0.9919946420690239,-281,-981,-12
102140,-302,856,458,486,564,17,0.07887492471161096,0.06226967740390339,0.03321049461541514,0.9943833750496591,-1949,559,2
102189,-275,883,459,546,502,25,0.05396705375004961,0.049815741923122714,0.03597803583336641,0.9966501542185007,1018,-186,89
102240,-255,904,464,568,444,56,0.09963148384624543,0.06780475983980593,0.037361806442342035,0.9920081538924096,2745,-1579,-33
102289,-225,923,468,645,312,37,0.14944722576936814,0.10516656628214796,0.034594265224390776,0.9825521649560631,-260,-392,-76
102339,-193,936,465,738,207,-31,0.116236731153953,0.09409640141034291,0.037361806442342035,0.9880480681584435,-2776,1703,18
102390,-151,945,463,820,115,-34,0.05950213618595213,0.04566443009619582,0.0401293476602933,0.9963753765873871,-144,1112,157
102439,-120,953,464,830,93,-2,0.07057230105775718,0.031826724006439516,0.04566443009619582,0.995952493739747,2314,-844,54
102489,-76,955,465,854,-4,2,0.12177181358985553,0.05535082435902524,0.04843197131414709,0.9898294074296032,-20,-366,-44
102540,-35,953,466,898,-103,-15,0.09548017201931853,0.04566443009619582,0.049815741923122714,0.9931347785833501,-2888,1885,24
102590,9,948,467,899,-150,7,0.02629164157053699,-0.015221476698731942,0.04843197131414709,0.9983643625376769,-1161,1872,180
102639,50,942,468,867,-157,36,0.022140329743610097,-0.044280659487220195,0.05535082435902524,0.9972388456317761,1722,-518,80
102689,89,933,471,795,-192,51,0.06226967740390339,-0.020756559134634464,0.05396705375004961,0.9963830637051412,914,-778,-76
102739,134,921,472,787,-267,28,0.07610738349365971,-0.02905918278848825,0.05535082435902524,0.9951379383362844,89,2264,-9
102789,166,908,474,745,-333,32,0.08717754836546475,-0.08856131897444039,0.05258328314107398,0.9908541598926656,1021,2668,179
102839,203,888,475,630,-446,14,0.12038804298087989,-0.13560951967961185,0.05535082435902524,0.9818620389455308,1154,-319,105
102890,226,862,477,510,-579,-10,0.1342257490706362,-0.1120854193270261,0.05535082435902524,0.983034380529739,-957,-1562,-37
102939,244,840,473,382,-640,-54,0.08994508958341602,-0.09132886019239164,0.06503721862185466,0.9896156225271118,-1982,519,-21
102990,260,811,471,303,-708,-57,0.05673459496800087,-0.1120854193270261,0.05535082435902524,0.9905323471501968,236,1333,116
103040,273,771,467,158,-768,-61,0.07472361288468407,-0.13699329028858748,0.05535082435902524,0.9861974986462615,1207,-728,68
103089,278,727,463,34,-862,-86,0.08579377775648912,-0.1023990250641967,0.060885906794927766,0.9891646848315662,-1164,-1793,-51
103140,282,692,457,-9,-912,-102,0.03874557705131767,-0.07195607166673282,0.05535082435902524,0.9951167721689896,-2830,-474,-10
103190,282,646,452,-74,-901,-79,-0.023524100352585727,-0.06918853044878155,0.05396705375004961,0.9958650114681602,-290,279,67
103248,276,596,448,-145,-881,-56,-0.005535082435902524,-0.06780475983980593,0.06642098923083029,0.9954698034571877,1890,-447,-12
103289,272,562,448,-184,-878,-37,0.034594265224390776,-0.05950213618595213,0.06226967740390339,0.9956832929596171,1816,939,-32
103348,264,517,446,-234,-915,-43,0.07333984227570844,-0.0982477132372698,0.06503721862185466,0.9903225810676815,285,2212,101
103389,253,477,443,-325,-977,-56,0.07749115410263534,-0.13976083150653873,0.06503721862185466,0.9850036503518023,-189,642,146
103439,233,429,440,-461,-1027,-70,0.06918853044878155,-0.13560951967961185,0.07333984227570844,0.9856187259592714,-60,-1789,-4
103489,205,373,436,-578,-1106,-70,0.06365344801287903,-0.08994508958341602,0.07472361288468407,0.9910976244010289,-192,-1023,-116
103539,179,320,434,-638,-1184,-52,0.05673459496800087,-0.0844100071475135,0.07887492471161096,0.9916828538796622,-499,964,-55
103590,150,262,435,-700,-1215,-33,0.044280659487220195,-0.10655033689112359,0.07195607166673282,0.9907111449126111,-601,145,30
103646,117,206,433,-772,-1216,-36,0.023524100352585727,-0.09132886019239164,0.07057230105775718,0.9930383710219728,-828,-2196,-113
103689,80,150,429,-839,-1226,-30,0.0,-0.04151311826926893,0.0581183655769765,0.9974461973431061,-1178,-1728,-193
103739,40,88,431,-825,-1191,12,-0.034594265224390776,-0.009686394262829417,0.05119951253209835,0.9980420935492876,-935,392,-69
103790,-4,23,432,-835,-1125,41,-0.049815741923122714,-0.02629164157053699,0.047048200705171454,0.9973031676729907,83,269,15
103846,-37,-21,436,-843,-1083,63,-0.03874557705131767,-0.017989017916683205,0.04843197131414709,0.9979125811652939,1491,-1782,-113
103890,-75,-71,438,-799,-1021,54,-0.005535082435902524,0.03321049461541514,0.04151311826926893,0.9985705217566704,1133,-1503,-161
103947,-118,-129,438,-746,-1028,38,0.008302623653853786,0.05396705375004961,0.037361806442342035,0.9978089591546905,-544,902,-17
103989,-143,-175,445,-685,-1052,64,-0.0,0.034594265224390776,0.0401293476602933,0.9985954497542755,-401,780,47
104044,-175,-227,447,-628,-1025,70,-0.002767541217951262,0.031826724006439516,0.0401293476602933,0.9986836515188301,791,-1414,-25
104089,-206,-282,449,-578,-1029,45,0.01383770608975631,0.07057230105775718,0.03874557705131767,0.9966578392169236,197,-1245,-115
104144,-235,-336,450,-503,-1040,21,0.002767541217951262,0.0802586953205866,0.03597803583336641,0.9961207072833177,-1109,1000,4
104189,-257,-388,451,-424,-1023,13,-0.022140329743610097,0.049815741923122714,0.0401293476602933,0.9977062859939554,-604,1014,104
104239,-273,-428,452,-377,-987,21,-0.02629164157053699,0.04151311826926893,0.04289688887824456,0.9978703660895315,556,-913,47
104289,-291,-479,453,-326,-962,15,-0.015221476698731942,0.07195607166673282,0.04151311826926893,0.996427263481366,-79,-1128,-56
104339,-307,-529,453,-244,-940,0,-0.030442953397463883,0.0844100071475135,0.04151311826926893,0.9951004161859035,-1263,979,5
104389,-316,-570,453,-182,-902,-9,-0.05535082435902524,0.05396705375004961,0.047048200705171454,0.9958967366964918,-529,841,194
104439,-324,-614,453,-136,-839,-3,-0.05950213618595213,0.05950213618595213,0.05119951253209835,0.9951369762475376,686,-3245,9
104489,-329,-657,452,-39,-778,-11,-0.04843197131414709,0.1563660788142463,0.04289688887824456,0.9855779271450077,-7,-3590,-148
104539,-327,-696,451,145,-719,-54,-0.06365344801287903,0.21310067378224717,0.03874557705131767,0.9741843365855275,-1077,958,-64
104589,-313,-732,447,346,-634,-86,-0.0802586953205866,0.15359853759629505,0.04843197131414709,0.983676966909535,7,3321,230
104642,-282,-750,440,497,-537,-98,-0.06642098923083029,0.10378279567317232,0.06226967740390339,0.9904240863326539,1251,146,212
104689,-253,-780,433,599,-482,-103,-0.03874557705131767,0.12453935480780678,0.060885906794927766,0.9895865983918612,159,-2140,-33
104743,-254,-774,409,645,-397,-140,-0.05258328314107398,0.1563660788142463,0.060885906794927766,0.9844173678293785,-1228,791,-76
104789,-215,-797,403,794,-329,-114,-0.07333984227570844,0.11346918993600175,0.06642098923083029,0.9886021761354967,328,3216,149
104842,-180,-812,401,859,-272,-57,-0.04566443009619582,0.049815741923122714,0.07333984227570844,0.9950147834156097,1988,1391,193
104890,-137,-827,401,852,-254,9,0.004151311826926893,0.02767541217951262,0.07887492471161096,0.9964916379089929,206,-974,14
104940,-92,-843,403,878,-262,60,-0.017989017916683205,0.047048200705171454,0.08302623653853786,0.9952735835392427,-2407,-98,-44
104990,-57,-857,409,898,-250,107,-0.06780475983980593,0.031826724006439516,0.0844100071475135,0.9936118582602771,-1932,1518,57
105042,-14,-869,418,870,-161,168,-0.0982477132372698,-0.012453935480780678,0.08717754836546475,0.9912579691461123,790,568,110
105089,31,-875,428,843,-65,186,-0.07333984227570844,-0.012453935480780678,0.08856131897444039,0.9932890112185487,872,-844,-51
105139,68,-879,437,793,-16,166,-0.07333984227570844,0.002767541217951262,0.08579377775648912,0.9936060768477875,-1355,58,-109
105189,116,-902,475,832,-59,281,-0.0982477132372698,-0.012453935480780678,0.0844100071475135,0.9914974720230226,-1351,1356,-40
105243,167,-912,507,810,11,335,-0.11070164871805048,-0.04843197131414709,0.08717754836546475,0.9888374811801574,981,686,31
105293,202,-906,515,705,123,243,-0.0802586953205866,-0.0581183655769765,0.08717754836546475,0.9912521740047208,1041,-235,-77
105340,234,-897,514,623,190,91,-0.07057230105775718,-0.05396705375004961,0.0844100071475135,0.9924626230374166,-756,68,-99
105390,260,-885,508,575,261,-44,-0.09686394262829418,-0.06365344801287903,0.07887492471161096,0.9901234071701931,-1071,527,-70
105442,283,-867,503,472,365,-112,-0.10655033689112359,-0.07610738349365971,0.07610738349365971,0.9884646468457464,1318,-136,-54
105489,300,-844,496,367,454,-141,-0.06226967740390339,-0.06503721862185466,0.07749115410263534,0.992918812645721,1984,-682,-81
105540,318,-820,488,308,495,-178,-0.044280659487220195,-0.060885906794927766,0.07610738349365971,0.9942533860776563,-1873,1333,-91
105590,326,-800,477,215,526,-219,-0.10793410750009921,-0.116236731153953,0.07057230105775718,0.9848140946860042,-3716,2949,36
105639,334,-768,464,42,666,-251,-0.1743550967309295,-0.18542526160273456,0.07333984227570844,0.9642816186874454,-265,942,190
105689,332,-738,453,-127,797,-272,-0.15221476698731942,-0.1785064085578564,0.07887492471161096,0.9688884729763841,2987,-2305,-42
105742,314,-698,449,-338,887,-224,-0.08579377775648912,-0.10655033689112359,0.08856131897444039,0.986632325736475,1094,-2182,-101
105790,303,-665,433,-388,911,-257,-0.07472361288468407,-0.07057230105775718,0.08164246592956223,0.9913477895056878,-1203,500,-206
105842,280,-607,413,-461,981,-262,-0.1023990250641967,-0.09963148384624543,0.07472361288468407,0.9869166067961148,-27,1170,-22
105890,259,-566,404,-560,1047,-226,-0.0802586953205866,-0.10378279567317232,0.07472361288468407,0.9885363194264325,2095,-1468,-75
105940,228,-513,396,-655,1082,-142,-0.02629164157053699,-0.044280659487220195,0.07472361288468407,0.9958736639033905,1523,-2619,-143
105992,194,-458,397,-665,1060,-32,-0.006918853044878155,0.011070164871805049,0.07195607166673282,0.9973223674783126,-254,-455,-282
106040,169,-413,392,-627,1080,-24,-0.015221476698731942,0.004151311826926893,0.06503721862185466,0.9977581036760156,-97,1202,-146
106089,138,-355,388,-623,1097,10,-0.002767541217951262,-0.01660524730770757,0.060885906794927766,0.9980027619356653,1436,-321,-72
106140,118,-313,400,-556,996,110,0.04566443009619582,0.023524100352585727,0.0581183655769765,0.9969872778071203,1414,-1927,-189
106190,95,-268,406,-503,957,135,0.05950213618595213,0.0581183655769765,0.049815741923122714,0.9952889747347843,-382,12,-227
106240,75,-228,411,-448,912,145,0.047048200705171454,0.04566443009619582,0.04566443009619582,0.9968028824488747,-539,1872,-71
106291,52,-178,422,-415,870,180,0.044280659487220195,0.001383770608975631,0.04289688887824456,0.9980967715100807,1119,274,41
106340,36,-144,441,-385,769,227,0.08164246592956223,0.015221476698731942,0.044280659487220195,0.9955611671813175,1185,-1494,-132
106389,17,-106,451,-347,680,183,0.09409640141034291,0.04843197131414709,0.04151311826926893,0.9935174243101179,-690,-228,-150
106439,4,-78,458,-303,618,156,0.07195607166673282,0.037361806442342035,0.03874557705131767,0.9959544163407367,-1267,1722,-61
106490,-9,-48,466,-278,565,134,0.05119951253209835,-0.004151311826926893,0.03597803583336641,0.9980315413172892,531,701,73
106540,-24,-19,473,-285,505,106,0.07472361288468407,-0.005535082435902524,0.03597803583336641,0.9965396758170045,1163,-1340,-46
106589,-38,4,476,-271,426,55,0.08579377775648912,0.02767541217951262,0.034594265224390776,0.9953274516823841,-1593,-108,-124
106640,-50,23,479,-246,376,20,0.023524100352585727,0.002767541217951262,0.03321049461541514,0.9991676638410631,-4534,3128,-5
106690,-58,34,488,-267,370,28,-0.08164246592956223,-0.0844100071475135,0.03597803583336641,0.9924288586029076,-2257,2528,194
106740,-75,56,488,-382,468,3,-0.1023990250641967,-0.12038804298087989,0.04151311826926893,0.9865585739248823,1854,-1277,91
106789,-99,86,487,-502,580,-24,-0.06226967740390339,-0.07195607166673282,0.05119951253209835,0.9941445674260768,1523,-2551,-125
106839,-125,118,482,-527,616,-84,-0.049815741923122714,-0.020756559134634464,0.04151311826926893,0.9976794165066758,-1655,106,-158
106889,-151,149,477,-554,677,-114,-0.09963148384624543,-0.04843197131414709,0.03874557705131767,0.993089468195178,-1918,2193,-5
106939,-181,187,469,-628,792,-146,-0.12177181358985553,-0.09132886019239164,0.047048200705171454,0.9872269908797074,1391,-92,101
106990,-220,232,461,-738,895,-138,-0.05950213618595213,-0.05119951253209835,0.04151311826926893,0.9960495804513677,2707,-3039,-123
107040,-253,273,452,-770,941,-151,-0.022140329743610097,0.012453935480780678,0.0401293476602933,0.9988715336549762,358,-1923,-211
107089,-290,319,444,-723,943,-145,-0.02767541217951262,0.03874557705131767,0.03597803583336641,0.9982176279535578,-1028,1132,-147
107140,-323,365,439,-700,981,-107,-0.04151311826926893,0.005535082435902524,0.03321049461541514,0.9985705217566704,358,243,78
107189,-360,418,434,-694,1023,-67,-0.023524100352585727,0.03321049461541514,0.03321049461541514,0.9986194183959175,1321,-4008,-43
107240,-395,473,433,-607,1043,-22,-0.001383770608975631,0.14806345516039252,0.02629164157053699,0.988627355482537,146,-3593,-203
107289,-418,517,432,-458,1048,-24,-0.005535082435902524,0.1964954264745396,0.022140329743610097,0.9802391116640168,-386,901,-218
107339,-437,573,431,-255,1063,-21,-0.009686394262829417,0.15083099637834377,0.019372788525658834,0.9883222548149168,712,2787,52
107389,-428,608,427,-39,971,-25,0.02767541217951262,0.10655033689112359,0.019372788525658834,0.9937332601527546,1684,-450,154
107439,-428,651,426,60,935,-14,0.05950213618595213,0.13699329028858748,0.022140329743610097,0.9885353509126821,270,-2204,-40
107489,-422,698,425,221,881,-28,0.049815741923122714,0.17573886733990512,0.023524100352585727,0.9828941240364283,-1244,826,-120
107540,-403,745,431,396,853,10,0.024907870961561357,0.12453935480780678,0.023524100352585727,0.9916229947771577,194,3416,83
107589,-385,782,434,477,833,53,0.04151311826926893,0.05673459496800087,0.023524100352585727,0.9972484461998324,1956,1458,240
107641,-362,829,438,494,776,87,0.09271263080136728,0.03874557705131767,0.031826724006439516,0.9944295892560054,791,-1063,30
107691,-346,858,441,493,675,82,0.09686394262829418,0.05673459496800087,0.03321049461541514,0.9931241742097102,-1335,-132,-29
107739,-319,893,444,552,600,62,0.06503721862185466,0.05535082435902524,0.037361806442342035,0.9956457913616038,10,49,26
107789,-291,922,448,590,516,69,0.09132886019239164,0.06226967740390339,0.03597803583336641,0.9932205734425488,2252,-892,1
107839,-265,945,449,639,428,41,0.13560951967961185,0.08302623653853786,0.03597803583336641,0.9866216514733926,618,-511,-45
107889,-237,961,451,707,322,16,0.13284197846166057,0.08717754836546475,0.037361806442342035,0.9865886575664368,-2045,874,5
107940,-198,975,454,783,213,19,0.08302623653853786,0.05950213618595213,0.03874557705131767,0.9940145472247957,-693,923,64
107990,-158,986,455,804,138,38,0.08717754836546475,0.0401293476602933,0.03874557705131767,0.9946298260037786,1782,-290,49
108039,-120,991,457,844,53,27,0.12315558419883116,0.049815741923122714,0.04151311826926893,0.990266507031746,322,-69,9
108089,-76,989,457,880,-80,2,0.10793410750009921,0.037361806442342035,0.03874557705131767,0.9926999063747727,-2413,1331,21
108139,-34,988,458,873,-124,16,0.044280659487220195,-0.006918853044878155,0.0401293476602933,0.9981888539371092,-1456,1434,129
108192,0,981,457,831,-154,31,0.03321049461541514,-0.031826724006439516,0.04566443009619582,0.9978972304352823,1289,-177,94
108240,42,972,459,801,-208,39,0.06642098923083029,-0.019372788525658834,0.04566443009619582,0.9965579296148959,552,-567,-2
108290,81,962,461,767,-263,35,0.06780475983980593,-0.022140329743610097,0.04151311826926893,0.9965886720977076,-249,1574,23
108339,118,947,461,737,-329,31,0.07610738349365971,-0.07472361288468407,0.04289688887824456,0.9933699737659561,1243,2436,182
108390,152,926,463,627,-438,25,0.11762050176292864,-0.11900427237190427,0.047048200705171454,0.9847790958040673,1596,216,163
108439,177,903,464,528,-560,-1,0.1383770608975631,-0.10931787810907485,0.049815741923122714,0.983066519824437,-767,-1057,14
108489,193,884,461,375,-618,-41,0.09132886019239164,-0.09686394262829418,0.05119951253209835,0.9897752400575277,-2262,291,29
108540,208,854,460,288,-688,-42,0.05396705375004961,-0.11346918993600175,0.04289688887824456,0.9911468897037282,144,810,120
108591,219,824,458,190,-739,-49,0.06642098923083029,-0.12453935480780678,0.04289688887824456,0.989059178319589,1488,-723,105
108639,225,780,454,47,-813,-68,0.08856131897444039,-0.09271263080136728,0.05119951253209835,0.9904240863326539,-1139,-1348,-19
108690,227,741,450,-10,-893,-74,0.04151311826926893,-0.07333984227570844,0.05535082435902524,0.9949041234155742,-2816,-236,14
108739,223,698,443,-98,-877,-74,-0.019372788525658834,-0.07610738349365971,0.05950213618595213,0.9951340899757166,-418,81,77
108791,223,663,445,-141,-831,-27,-0.011070164871805049,-0.06642098923083029,0.06365344801287903,0.9956977162750654,1399,-1106,32
108839,216,622,445,-187,-815,-6,0.022140329743610097,-0.0401293476602933,0.06503721862185466,0.9968297755630781,1251,245,-66
108890,209,584,447,-213,-829,9,0.05396705375004961,-0.07057230105775718,0.06503721862185466,0.9939201515347627,1222,2834,69
108939,198,541,448,-288,-910,7,0.0844100071475135,-0.13145820785268494,0.06918853044878155,0.9852952032441116,892,1493,185
108989,179,489,448,-433,-1020,-14,0.0982477132372698,-0.14114460211551436,0.07333984227570844,0.9823679838391898,-210,-1528,11
109039,160,444,448,-524,-1092,-19,0.07610738349365971,-0.09963148384624543,0.07887492471161096,0.9889691501033194,-1343,-1548,-71
109089,131,391,446,-620,-1157,-16,0.04566443009619582,-0.08164246592956223,0.07610738349365971,0.9927018352751641,-533,613,-31
109139,98,330,444,-699,-1197,-15,0.04566443009619582,-0.10378279567317232,0.07610738349365971,0.990631897994406,752,610,123
109190,66,279,441,-782,-1243,-34,0.0581183655769765,-0.10516656628214796,0.08302623653853786,0.9892769546316795,-398,-1606,5
109240,30,217,446,-814,-1250,6,0.024907870961561357,-0.05119951253209835,0.07610738349365971,0.9954726887556418,-2331,-1973,-33
109289,-2,165,447,-826,-1239,29,-0.02905918278848825,-0.01660524730770757,0.07195607166673282,0.9968461031713005,-1438,-546,-20
109339,-43,102,452,-804,-1152,83,-0.05535082435902524,-0.006918853044878155,0.07057230105775718,0.9959457646070558,1051,205,61
109390,-83,44,457,-797,-1101,100,-0.020756559134634464,-0.002767541217951262,0.07333984227570844,0.9970871443878271,1686,-716,22
109439,-113,-1,465,-747,-1065,115,0.009686394262829417,0.024907870961561357,0.07333984227570844,0.9969488649200225,653,-1163,-31
109489,-150,-58,469,-703,-1080,77,0.01383770608975631,0.049815741923122714,0.07333984227570844,0.9959659518687356,-629,-198,-38
109539,-187,-116,472,-651,-1084,53,-0.001383770608975631,0.047048200705171454,0.07333984227570844,0.996195673311364,23,340,0
109592,-221,-179,474,-599,-1094,26,0.015221476698731942,0.04843197131414709,0.07472361288468407,0.9959111569207343,894,-512,14
109639,-243,-222,475,-521,-1070,6,0.023524100352585727,0.06642098923083029,0.07195607166673282,0.9949156711211716,-196,-658,-42
109689,-265,-275,477,-452,-1088,-5,0.005535082435902524,0.07472361288468407,0.07333984227570844,0.9944883167110923,-1181,280,5
109739,-284,-326,476,-379,-1067,-9,-0.017989017916683205,0.06226967740390339,0.07472361288468407,0.9950956055514801,-333,486,32
109789,-299,-376,475,-292,-1009,-21,-0.017989017916683205,0.0581183655769765,0.07749115410263534,0.9951350520672537,497,-278,-9
109839,-313,-424,473,-248,-998,-32,-0.012453935480780678,0.06642098923083029,0.07610738349365971,0.9948069249147734,-352,-181,-23
109889,-322,-475,469,-167,-966,-58,-0.031826724006439516,0.06226967740390339,0.07610738349365971,0.994644264595529,-1210,648,19
109939,-335,-524,466,-149,-912,-50,-0.05673459496800087,0.0401293476602933,0.0802586953205866,0.9943487129853457,-389,273,105
109990,-341,-565,469,-119,-863,-10,-0.05535082435902524,0.060885906794927766,0.0802586953205866,0.9933719013652303,520,-2937,-33
110039,-347,-611,467,-31,-792,-37,-0.05673459496800087,0.15221476698731942,0.07195607166673282,0.984090531503634,-415,-2985,-135
110091,-344,-642,460,114,-725,-96,-0.07610738349365971,0.18957657342966144,0.06918853044878155,0.9764636891552881,-876,787,-44
110139,-331,-677,460,308,-607,-88,-0.0844100071475135,0.14806345516039252,0.07472361288468407,0.9825317020924988,873,2363,162
110190,-314,-704,445,428,-542,-158,-0.05119951253209835,0.11346918993600175,0.07749115410263534,0.9891908177331534,1561,-149,100
110240,-290,-732,442,535,-500,-114,-0.02629164157053699,0.1342257490706362,0.07472361288468407,0.9877796209415403,-658,-1532,-47
110290,-260,-760,438,673,-452,-104,-0.06226967740390339,0.15083099637834377,0.07749115410263534,0.9835484832194962,-1536,871,-64
110339,-229,-779,435,787,-392,-83,-0.07472361288468407,0.11070164871805048,0.08302623653853786,0.9875566670803312,857,2866,92
110389,-187,-797,441,855,-310,13,-0.02767541217951262,0.04289688887824456,0.08717754836546475,0.9948839146082565,2221,1446,119
110440,-150,-820,420,872,-356,-95,0.015221476698731942,0.031826724006439516,0.08579377775648912,0.995688100754648,-390,-489,-13
110489,-105,-843,413,894,-387,-93,-0.015221476698731942,0.03597803583336641,0.0844100071475135,0.9956650231267741,-2476,426,-37
110539,-66,-861,410,907,-361,-53,-0.06780475983980593,0.011070164871805049,0.08579377775648912,0.9939413431843186,-1668,1410,74
110590,-23,-879,414,856,-285,22,-0.09132886019239164,-0.024907870961561357,0.08994508958341602,0.991437601727891,272,248,79
110639,19,-895,423,788,-203,95,-0.0844100071475135,-0.022140329743610097,0.08302623653853786,0.992719195210029,-279,-718,-48
110690,50,-903,429,759,-137,114,-0.1023990250641967,-0.01383770608975631,0.07749115410263534,0.991623960275223,-1744,247,-32
110739,88,-908,438,710,-17,134,-0.14252837272448998,-0.034594265224390776,0.07610738349365971,0.9862538040280718,-565,1011,18
110789,123,-905,445,652,129,128,-0.13560951967961185,-0.05258328314107398,0.0802586953205866,0.9861052673684528,1500,-28,26
110839,156,-895,451,594,246,111,-0.0982477132372698,-0.03874557705131767,0.0802586953205866,0.9911633109271372,942,-665,-69
110890,180,-883,455,561,317,89,-0.09271263080136728,-0.02905918278848825,0.07749115410263534,0.9922474756941416,-809,280,-57
110939,209,-864,459,520,415,60,-0.11070164871805048,-0.044280659487220195,0.07749115410263534,0.989838112623637,36,820,-4
110990,235,-838,462,457,521,40,-0.08717754836546475,-0.05673459496800087,0.0802586953205866,0.9913323371202218,2099,-230,-9
111040,257,-809,464,400,585,33,-0.03597803583336641,-0.037361806442342035,0.08164246592956223,0.995311099161402,1411,-678,-69
111090,199,-718,443,190,747,0,-0.03597803583336641,-0.04289688887824456,0.09409640141034291,0.9939875779423826,-2144,1677,-84
111140,231,-721,519,140,708,141,-0.09271263080136728,-0.10793410750009921,0.09686394262829418,0.9850746028329778,-2429,2779,0
111190,235,-681,526,-9,807,102,-0.12177181358985553,-0.1646687024681001,0.09963148384624543,0.9737193698746601,1096,-20,82
111240,230,-636,530,-172,895,41,-0.07472361288468407,-0.1286906666347337,0.10378279567317232,0.983404405786769,2396,-2389,-180
111296,213,-644,496,-220,784,-115,-0.03597803583336641,-0.07749115410263534,0.1023990250641967,0.9910676776281813,-557,-503,-250
111340,199,-609,480,-283,789,-201,-0.06226967740390339,-0.0844100071475135,0.09409640141034291,0.990021871077096,-2094,1797,-96
111391,184,-574,470,-375,844,-227,-0.09548017201931853,-0.12730689602575807,0.08717754836546475,0.9834005115091384,-133,453,80
111439,160,-527,458,-522,934,-231,-0.0802586953205866,-0.11070164871805048,0.08856131897444039,0.9866410591385552,2245,-2849,-122
111489,121,-528,408,-643,783,-360,-0.023524100352585727,-0.034594265224390776,0.08994508958341602,0.9950677034131985,1546,-2925,-143
111539,86,-485,376,-631,801,-389,-0.005535082435902524,0.020756559134634464,0.07333984227570844,0.9970756218313095,-467,-131,-207
111590,60,-444,360,-590,848,-319,-0.02767541217951262,0.006918853044878155,0.060885906794927766,0.9977369930933687,-906,1153,-26
111639,34,-401,352,-582,908,-200,-0.037361806442342035,-0.011070164871805049,0.0581183655769765,0.9975488972735808,719,-551,5
111691,5,-351,347,-578,962,-55,-0.011070164871805049,0.019372788525658834,0.05258328314107398,0.9983672394708055,1585,-1980,-101
111754,-1,-324,373,-422,863,167,0.02767541217951262,0.07057230105775718,0.04843197131414709,0.9959457646070558,230,317,-118
111790,-8,-297,396,-298,775,298,0.03597803583336641,0.06365344801287903,0.04843197131414709,0.9961466577006973,-643,1812,-7
111839,-20,-258,407,-234,747,298,0.020756559134634464,0.01660524730770757,0.047048200705171454,0.9985388814789068,-381,1357,90
111890,-29,-222,418,-207,736,287,0.020756559134634464,0.001383770608975631,0.04843197131414709,0.9986098310082961,848,-690,43
111939,-39,-185,431,-193,705,257,0.04289688887824456,0.023524100352585727,0.047048200705171454,0.9976938109648545,588,-599,-80
111989,-47,-151,442,-161,668,225,0.047048200705171454,0.02629164157053699,0.044280659487220195,0.9975642533638167,-591,1277,-21
112039,-55,-118,453,-150,628,187,0.031826724006439516,-0.01383770608975631,0.04289688887824456,0.9984765567872683,-425,1529,78
112090,-65,-82,464,-182,600,153,0.03321049461541514,-0.03874557705131767,0.04843197131414709,0.9975220235468415,680,-421,76
112147,-64,-72,483,-182,514,186,0.04843197131414709,-0.019372788525658834,0.05535082435902524,0.997103467781625,-902,-241,-74
112189,-76,-45,494,-205,477,145,0.008302623653853786,-0.02905918278848825,0.05673459496800087,0.9979317692457459,-3417,2201,-23
112239,-85,-22,498,-238,494,77,-0.06918853044878155,-0.09548017201931853,0.05258328314107398,0.9916307187353591,-2954,2907,118
112290,-100,5,500,-364,581,22,-0.11762050176292864,-0.15221476698731942,0.05535082435902524,0.9797613834596713,738,-394,153
112339,-123,38,500,-505,676,-39,-0.0844100071475135,-0.11346918993600175,0.0581183655769765,0.9882418475308993,1869,-2737,-90
112389,-145,69,492,-573,733,-108,-0.05950213618595213,-0.05673459496800087,0.0581183655769765,0.9949185580266288,-474,-1052,-176
112439,-180,111,479,-633,797,-171,-0.09132886019239164,-0.05950213618595213,0.05535082435902524,0.9924992802657558,-1736,1778,-59
112489,-215,156,469,-720,901,-190,-0.11485296054497737,-0.10101525445522107,0.060885906794927766,0.9863557280084909,657,365,83
112539,-250,199,460,-816,991,-195,-0.0802586953205866,-0.07887492471161096,0.06226967740390339,0.9916954045235808,2550,-3050,-94
112594,-291,247,445,-829,1006,-203,-0.023524100352585727,0.017989017916683205,0.0581183655769765,0.9978703660895315,1029,-2621,-213
112645,-326,292,438,-741,979,-174,-0.011070164871805049,0.0581183655769765,0.04843197131414709,0.9970727411713739,-399,1109,-190
112690,-353,330,431,-677,964,-145,-0.015221476698731942,0.02629164157053699,0.047048200705171454,0.9984305299023274,-33,1812,5
112740,-392,386,424,-683,998,-96,-0.011070164871805049,0.008302623653853786,0.05119951253209835,0.998592573478618,584,-2529,54
112794,-425,435,421,-624,983,-53,-0.001383770608975631,0.10931787810907485,0.05119951253209835,0.9926864039670871,104,-4635,-149
112839,-443,476,423,-461,985,-17,-0.005535082435902524,0.1923441146476127,0.04151311826926893,0.9804334579329774,-52,-1101,-334
112895,-459,533,424,-191,989,-11,-0.004151311826926893,0.1743550967309295,0.030442953397463883,0.9842033801214582,423,3610,-72
112939,-463,574,423,-60,987,-9,0.009686394262829417,0.1023990250641967,0.02905918278848825,0.9942716818494592,891,2058,134
112994,-464,624,423,28,969,9,0.03597803583336641,0.0802586953205866,0.02905918278848825,0.9957006009130834,775,-2293,17
113042,-466,677,425,116,925,33,0.04566443009619582,0.14114460211551436,0.02905918278848825,0.9885082321424077,-310,-1654,-122
113094,-458,712,428,246,875,37,0.03597803583336641,0.15221476698731942,0.02629164157053699,0.9873423900714966,-328,2563,-53
113139,-438,763,431,401,849,40,0.03597803583336641,0.06918853044878155,0.023524100352585727,0.9966770514537358,764,3427,137
113190,-419,805,433,416,796,53,0.06918853044878155,0.011070164871805049,0.030442953397463883,0.9970775422666428,1427,55,185
113243,-402,837,437,429,726,72,0.08994508958341602,0.02905918278848825,0.03597803583336641,0.9948723665340542,-237,-1766,-42
113295,-382,873,442,453,628,68,0.07472361288468407,0.07057230105775718,0.037361806442342035,0.9940020258632465,-613,-1013,-48
113340,-357,904,444,531,552,63,0.07195607166673282,0.08717754836546475,0.03874557705131767,0.9928349203519382,1022,60,-36
113389,-332,926,448,609,489,62,0.1023990250641967,0.08302623653853786,0.03597803583336641,0.9906193338763997,1462,404,35
113440,-300,948,452,680,369,44,0.12453935480780678,0.07472361288468407,0.03321049461541514,0.9888394176148696,-542,59,25
113489,-263,966,451,754,267,7,0.0982477132372698,0.07472361288468407,0.037361806442342035,0.9916490628949699,-1366,-66,28
113539,-224,979,453,819,196,12,0.07610738349365971,0.07057230105775718,0.04151311826926893,0.993732296704059,279,396,21
113590,-190,985,454,864,122,11,0.09271263080136728,0.05673459496800087,0.037361806442342035,0.9933728651634648,994,965,49
113639,-141,987,456,910,5,15,0.10655033689112359,0.02905918278848825,0.034594265224390776,0.9932803362684867,-702,973,94
113689,-102,984,459,917,-89,25,0.07749115410263534,0.006918853044878155,0.03321049461541514,0.9964157332939824,-1851,568,112
113741,-58,976,463,899,-162,45,0.0401293476602933,-0.008302623653853786,0.034594265224390776,0.9985609338995824,-304,364,84
113789,-17,966,468,884,-205,67,0.04289688887824456,-0.017989017916683205,0.031826724006439516,0.9984103924729443,723,661,94
113839,28,954,471,859,-259,70,0.06642098923083029,-0.04151311826926893,0.034594265224390776,0.9963273307576904,1158,1601,106
113889,70,939,475,805,-337,55,0.09686394262829418,-0.08579377775648912,0.03597803583336641,0.990940152206149,924,1730,193
113940,111,918,477,708,-447,21,0.1120854193270261,-0.11900427237190427,0.03874557705131767,0.985785789200919,-141,428,154
113990,145,892,477,591,-559,-13,0.09963148384624543,-0.12177181358985553,0.0401293476602933,0.9867293591953126,-874,-291,91
114040,167,867,476,499,-637,-38,0.08164246592956223,-0.11762050176292864,0.0401293476602933,0.9888829863934036,-512,231,70
114090,191,831,473,377,-721,-59,0.07333984227570844,-0.1286906666347337,0.0401293476602933,0.9881546515158653,41,567,129
114139,207,791,469,248,-800,-91,0.07195607166673282,-0.13976083150653873,0.04151311826926893,0.9866944282494224,-583,-188,96
114189,202,739,484,64,-893,-66,0.047048200705171454,-0.12730689602575807,0.03321049461541514,0.9901901252194409,-1460,-1045,52
114240,204,694,483,-36,-939,-68,0.01660524730770757,-0.10655033689112359,0.024907870961561357,0.993856573874923,-1112,-765,62
114290,198,654,477,-127,-909,-70,-0.009686394262829417,-0.08856131897444039,0.020756559134634464,0.9958073266453621,-375,-339,105
114339,129,722,412,-321,-674,-199,-0.030442953397463883,-0.08164246592956223,0.037361806442342035,0.9954957708422196,-425,-826,105
114389,117,698,405,-366,-621,-171,-0.034594265224390776,-0.0581183655769765,0.044280659487220195,0.9967270015363396,1382,-881,-51
114439,96,669,395,-428,-591,-135,0.023524100352585727,-0.047048200705171454,0.05535082435902524,0.9970804229127076,3923,1158,-12
114489,76,639,393,-475,-654,-79,0.11900427237190427,-0.08302623653853786,0.06365344801287903,0.9873666318848091,2157,1699,103
114539,55,607,391,-541,-796,-63,0.14252837272448998,-0.10516656628214796,0.06780475983980593,0.9818493626050778,-1095,-364,119
114589,25,560,387,-637,-957,-45,0.10378279567317232,-0.08717754836546475,0.0802586953205866,0.9875159483313092,-1514,-1824,38
114641,-3,518,385,-699,-1047,0,0.07749115410263534,-0.05396705375004961,0.08856131897444039,0.9915843740836623,690,-834,-102
114689,-28,466,402,-668,-1104,127,0.09548017201931853,-0.030442953397463883,0.08164246592956223,0.9916104432167612,1021,599,-2
114740,-62,408,409,-679,-1202,143,0.10655033689112359,-0.04566443009619582,0.07887492471161096,0.9901214732466493,-1149,463,73
114789,-93,350,415,-716,-1297,146,0.07057230105775718,-0.049815741923122714,0.07749115410263534,0.9932437078662536,-2236,-1138,68
114839,-131,283,423,-744,-1322,148,0.015221476698731942,-0.01383770608975631,0.07333984227570844,0.9970948260181965,-1057,-1788,-31
114889,-171,209,433,-733,-1336,176,-0.004151311826926893,0.022140329743610097,0.07333984227570844,0.9970525763187887,-83,-359,-28
114939,-193,163,441,-660,-1256,171,-0.012453935480780678,0.022140329743610097,0.07057230105775718,0.997183160514305,-245,792,41
114989,-231,93,448,-644,-1235,152,-0.008302623653853786,0.006918853044878155,0.07472361288468407,0.9971457153247291,855,-345,44
115039,-252,46,456,-597,-1196,136,0.011070164871805049,0.031826724006439516,0.06918853044878155,0.9970343315769358,961,-1493,-54
115089,-279,-14,462,-521,-1187,98,0.020756559134634464,0.06780475983980593,0.06642098923083029,0.9952687737418243,-583,-115,-49
115139,-297,-68,469,-439,-1194,91,0.002767541217951262,0.05950213618595213,0.06780475983980593,0.9959188476216231,-771,1240,54
115189,-318,-131,471,-383,-1181,59,-0.005535082435902524,0.030442953397463883,0.06918853044878155,0.997123631605031,497,238,85
115239,-338,-191,475,-348,-1154,40,0.006918853044878155,0.04289688887824456,0.07333984227570844,0.9963600021739557,321,-1146,-38
115290,-354,-241,479,-314,-1154,26,0.001383770608975631,0.06365344801287903,0.07472361288468407,0.995169686743137,-1244,-135,-30
115340,-369,-302,479,-252,-1138,4,-0.03321049461541514,0.05258328314107398,0.07749115410263534,0.9950513466235533,-992,1113,37
115390,-382,-357,473,-228,-1111,-36,-0.04289688887824456,0.02767541217951262,0.0802586953205866,0.9954659563795735,486,185,82
115439,-396,-412,473,-217,-1043,-30,-0.031826724006439516,0.034594265224390776,0.07887492471161096,0.9957755985684426,92,-974,-17
115489,-403,-458,471,-175,-1016,-40,-0.04151311826926893,0.05258328314107398,0.07749115410263534,0.9947395540449314,-1353,-547,-8
115539,-410,-510,469,-105,-928,-40,-0.08164246592956223,0.07333984227570844,0.07749115410263534,0.9909343552061136,-774,-1650,12
115589,-413,-557,463,-16,-835,-77,-0.08856131897444039,0.12730689602575807,0.06918853044878155,0.9854759227196432,784,-2245,-95
115641,-408,-591,457,120,-754,-119,-0.07333984227570844,0.1660524730770757,0.05950213618595213,0.9815840970132257,661,-202,-58
115695,-397,-628,452,287,-676,-143,-0.06365344801287903,0.1563660788142463,0.0581183655769765,0.9839309648217143,-511,1552,89
115740,-377,-667,445,437,-611,-138,-0.07333984227570844,0.12038804298087989,0.06642098923083029,0.9877834979547927,-402,574,145
115795,-358,-691,441,515,-534,-109,-0.07472361288468407,0.11762050176292864,0.06780475983980593,0.9879191838331529,492,-729,-4
115839,-332,-715,438,625,-470,-93,-0.06365344801287903,0.13145820785268494,0.06503721862185466,0.9871358256785968,435,279,-30
115889,-294,-740,430,763,-403,-100,-0.05396705375004961,0.10931787810907485,0.06503721862185466,0.9904076528527038,44,2138,96
115940,-253,-763,422,839,-360,-92,-0.04566443009619582,0.05119951253209835,0.06918853044878155,0.995241838446718,158,1626,151
115996,-212,-785,419,844,-338,-53,-0.037361806442342035,0.024907870961561357,0.07195607166673282,0.9963965160185072,38,-197,46
116048,-178,-798,426,798,-280,66,-0.0401293476602933,0.023524100352585727,0.07195607166673282,0.99632252604729,-261,375,5
116089,-142,-813,438,802,-254,150,-0.05119951253209835,0.006918853044878155,0.07333984227570844,0.9959678744437459,-1149,1012,48
116139,-111,-824,444,770,-216,157,-0.0802586953205866,-0.015221476698731942,0.07749115410263534,0.9936407648181453,-1660,272,72
116190,-73,-835,448,733,-130,118,-0.116236731153953,-0.01660524730770757,0.07472361288468407,0.9902674738523696,-353,-851,-4
116239,-34,-839,455,705,-7,98,-0.11485296054497737,0.002767541217951262,0.06918853044878155,0.9909662382866526,527,-303,-53
116295,-9,-836,464,661,91,126,-0.10655033689112359,-0.004151311826926893,0.07195607166673282,0.9916915428039081,-127,1114,29
116339,22,-830,467,627,186,79,-0.10931787810907485,-0.03321049461541514,0.07610738349365971,0.9905323471501968,-249,768,59
116389,57,-820,457,602,273,-31,-0.10793410750009921,-0.03597803583336641,0.07195607166673282,0.9908976400849999,535,-820,-27
116439,81,-811,456,562,325,-59,-0.09132886019239164,-0.015221476698731942,0.06918853044878155,0.9932976860928483,941,-592,-97
116489,107,-796,460,522,382,-22,-0.06780475983980593,-0.01383770608975631,0.06918853044878155,0.9952004721098046,334,1106,-36
116540,137,-772,459,494,450,-24,-0.05950213618595213,-0.047048200705171454,0.07195607166673282,0.9945191231695881,179,916,79
116589,155,-756,463,432,469,23,-0.04843197131414709,-0.05396705375004961,0.07749115410263534,0.9943525643854932,756,-812,-19
116639,175,-738,459,389,474,-3,-0.03321049461541514,-0.031826724006439516,0.07610738349365971,0.9960380458919059,-355,-52,-90
116689,194,-713,466,341,502,38,-0.05950213618595213,-0.060885906794927766,0.07610738349365971,0.9934586394615615,-2611,3387,-3
116740,211,-688,460,236,558,-23,-0.116236731153953,-0.16190116125014883,0.07749115410263534,0.9768685466081599,-1574,2886,185
116790,217,-655,463,21,678,-28,-0.13007443724370932,-0.19511165586556398,0.08856131897444039,0.9680748810410471,1038,-1300,49
116839,213,-633,443,-133,712,-168,-0.0982477132372698,-0.14944722576936814,0.06918853044878155,0.9814407067203931,1220,-2700,-187
116893,202,-594,438,-269,782,-161,-0.0844100071475135,-0.10101525445522107,0.06503721862185466,0.9891617811332162,-562,298,-125
116946,187,-553,425,-375,860,-198,-0.10101525445522107,-0.13284197846166057,0.05950213618595213,0.9841790603924913,-360,1740,56
116989,169,-518,422,-508,917,-161,-0.09686394262829418,-0.1563660788142463,0.06918853044878155,0.9804998588827525,1155,-712,58
117039,139,-466,407,-655,997,-190,-0.05950213618595213,-0.10378279567317232,0.0581183655769765,0.9911159784274642,1530,-3292,-89
117089,112,-426,404,-705,1020,-137,-0.03597803583336641,-0.034594265224390776,0.05258328314107398,0.9973684455030966,567,-1807,-202
117140,75,-370,395,-717,1058,-108,-0.02767541217951262,-0.01383770608975631,0.044280659487220195,0.9985398402899328,233,1267,-94
117189,38,-315,389,-743,1086,-60,-0.01383770608975631,-0.04566443009619582,0.0401293476602933,0.9980545642250841,1182,490,51
117239,0,-258,387,-793,1084,1,0.023524100352585727,-0.02767541217951262,0.04151311826926893,0.998477515658143,1515,-2294,-59
117289,-11,-245,411,-691,895,141,0.05673459496800087,0.034594265224390776,0.049815741923122714,0.996545440210355,340,-2047,-166
117339,-41,-211,429,-616,778,218,0.06226967740390339,0.06780475983980593,0.05535082435902524,0.9942139045808284,-451,953,-164
117389,-62,-159,447,-481,761,239,0.04843197131414709,0.02905918278848825,0.05258328314107398,0.997018007051225,-323,1838,-14
117439,-77,-125,457,-426,721,225,0.049815741923122714,0.006918853044878155,0.05258328314107398,0.9973492465848149,496,-485,25
117490,-94,-90,465,-396,687,189,0.060885906794927766,0.03321049461541514,0.05396705375004961,0.9961312797571905,486,-1695,-133
117539,-110,-55,474,-317,614,139,0.06642098923083029,0.06918853044878155,0.05396705375004961,0.9939259311203603,-450,313,-150
117589,-122,-24,479,-251,585,85,0.05258328314107398,0.04151311826926893,0.049815741923122714,0.9965089318226487,-578,2232,-24
117639,-137,6,484,-240,541,51,0.047048200705171454,-0.011070164871805049,0.05119951253209835,0.9975181843839201,426,660,82
117689,-145,30,486,-230,512,22,0.05950213618595213,-0.002767541217951262,0.05396705375004961,0.9967644624556268,322,-1418,-71
117746,-154,56,485,-203,457,-34,0.04566443009619582,0.023524100352585727,0.05258328314107398,0.997294527640003,-3088,1253,-90
117789,-166,81,482,-206,455,-68,-0.03874557705131767,-0.030442953397463883,0.05396705375004961,0.9973262073950225,-3413,3610,6
117839,-177,103,479,-269,515,-101,-0.09271263080136728,-0.11070164871805048,0.0581183655769765,0.9878116058457987,-101,1885,164
117889,-195,133,472,-406,599,-124,-0.07195607166673282,-0.1259231254167824,0.06642098923083029,0.9871949870340505,1988,-2198,-44
117948,-220,166,465,-514,650,-137,-0.03874557705131767,-0.05535082435902524,0.06365344801287903,0.9956823313978251,-449,-2062,-200
117989,-244,198,456,-547,691,-168,-0.0581183655769765,-0.022140329743610097,0.06365344801287903,0.996032278562084,-1605,992,-205
118048,-277,241,444,-591,769,-172,-0.08856131897444039,-0.07610738349365971,0.06365344801287903,0.9911169444194404,458,1735,-14
118090,-303,275,437,-672,836,-160,-0.06780475983980593,-0.09686394262829418,0.06642098923083029,0.9907613957715383,2012,-1113,-43
118139,-342,320,429,-766,883,-127,-0.022140329743610097,-0.03874557705131767,0.06642098923083029,0.996793277589392,974,-3135,-198
118189,-364,366,432,-741,918,-73,-0.020756559134634464,0.020756559134634464,0.0581183655769765,0.9978780416906876,-744,-861,-297
118245,-399,413,431,-690,931,-36,-0.03597803583336641,0.019372788525658834,0.047048200705171454,0.998056482776761,215,1525,-94
118289,-434,461,429,-683,971,-6,-0.023524100352585727,-0.004151311826926893,0.047048200705171454,0.9986069547740607,1113,-985,23
118345,-465,508,430,-644,965,25,0.001383770608975631,0.05535082435902524,0.04289688887824456,0.9975440984469035,155,-4169,-161
118389,-495,558,434,-561,994,52,-0.008302623653853786,0.1466796845514169,0.034594265224390776,0.9885440675022757,-827,-2178,-265
118439,-520,614,433,-359,1011,14,-0.02767541217951262,0.1605173906411732,0.030442953397463883,0.9861751697598571,93,2079,-152
118490,-529,657,436,-217,1028,28,-0.011070164871805049,0.1120854193270261,0.02767541217951262,0.9932514192210801,1758,1857,94
118547,-539,710,438,-122,1015,49,0.0401293476602933,0.08994508958341602,0.02767541217951262,0.9947530285839218,1242,-2019,12
118597,-542,768,444,13,952,58,0.05673459496800087,0.15083099637834377,0.024907870961561357,0.9866158290993994,-808,-1447,-105
118641,-539,804,445,139,907,40,0.037361806442342035,0.16190116125014883,0.02629164157053699,0.9857488823167616,-818,1605,-77
118689,-527,856,447,295,889,26,0.034594265224390776,0.09963148384624543,0.024907870961561357,0.9941108601178955,1254,2835,107
118740,-510,899,450,369,828,42,0.0844100071475135,0.049815741923122714,0.023524100352585727,0.9949070103545391,2043,392,169
118790,-493,931,453,414,740,42,0.11485296054497737,0.05673459496800087,0.02767541217951262,0.9913748306006991,-285,-989,41
118840,-473,968,454,459,624,17,0.09132886019239164,0.0802586953205866,0.034594265224390776,0.9919782346074839,-1232,-884,22
118889,-453,994,455,531,562,15,0.07610738349365971,0.09548017201931853,0.037361806442342035,0.9918141450636179,1135,-534,-6
118939,-427,1020,455,610,463,6,0.11762050176292864,0.10516656628214796,0.034594265224390776,0.986868100464821,1885,133,10
